[{"name":"Tr\u00e4leborg","lat":58.21277778,"lon":13.48027778,"branch":"air"},{"name":"Q10717181","lat":56.62086,"lon":14.723462,"branch":"air"},{"name":"Netolice (hill fort)","lat":49.0517606,"lon":14.2028722,"branch":"air"},{"name":"Q10856812","lat":49.5570733,"lon":17.9797525,"branch":"air"},{"name":"Q10861651","lat":49.4394,"lon":14.192,"branch":"air"},{"name":"Castro de Romariz","lat":40.945913888,"lon":-8.460402777,"branch":"air"},{"name":"Raktuv\u0117s kalnas","lat":56.35691667,"lon":23.23075,"branch":"air"},{"name":"Sv\u0113tkalns","lat":56.484055398,"lon":23.384718806,"branch":"air"},{"name":"Mikul\u010dice Archaeopark","lat":48.8041,"lon":17.0868,"branch":"air"},{"name":"Q11008692","lat":56.49944444,"lon":22.74305556,"branch":"air"},{"name":"Sp\u0101rnu hillfort","lat":56.55194444,"lon":23.04333333,"branch":"air"},{"name":"S\u0113lpils Castle","lat":56.58757,"lon":25.64072,"branch":"air"},{"name":"Q11040811","lat":56.486717222,"lon":21.781764166,"branch":"air"},{"name":"Pr\u00e1che\u0148","lat":49.316,"lon":13.6817,"branch":"air"},{"name":"\u010cernov (hradi\u0161t\u011b)","lat":49.301924166,"lon":16.867575,"branch":"air"},{"name":"Q11196513","lat":55.82611111,"lon":26.46388889,"branch":"air"},{"name":"Biloniai Hillfort","lat":55.59694444,"lon":22.32138889,"branch":"air"},{"name":"Govurqala","lat":40.136308,"lon":46.874596,"branch":"air"},{"name":"Bir\u017e\u0173 Laukas hillfort","lat":55.46583333,"lon":22.24583333,"branch":"air"},{"name":"Dign\u0101jas pilskalns","lat":56.27481,"lon":26.18742,"branch":"air"},{"name":"D\u017eiugin\u0117nai hillfort","lat":55.98333333,"lon":22.18425,"branch":"air"},{"name":"Kraskino Fortress","lat":42.691944444,"lon":130.760555555,"branch":"air"},{"name":"Castro of Burela","lat":43.669913888,"lon":-7.358133333,"branch":"air"},{"name":"Castro of Tro\u00f1a","lat":42.213752777,"lon":-8.489388888,"branch":"air"},{"name":"Cimburk","lat":49.9283614,"lon":15.2468725,"branch":"air"},{"name":"Koch\u0142owice Gord","lat":50.2606,"lon":18.8912,"branch":"air"},{"name":"Lubomia","lat":50.0423,"lon":18.3328,"branch":"air"},{"name":"Darebnice Castle","lat":50.016115,"lon":16.190359,"branch":"air"},{"name":"Mokrzyk Castle","lat":52.68858,"lon":19.86628,"branch":"air"},{"name":"Nowe Proboszczewice Gord","lat":52.652961,"lon":19.705235,"branch":"air"},{"name":"Grodzisko Paw\u0142\u00f3wek","lat":53.1525,"lon":17.8878,"branch":"air"},{"name":"Radom Piotr\u00f3wka","lat":51.39984,"lon":21.13323,"branch":"air"},{"name":"Grabbacka","lat":60.05291713,"lon":23.69923347,"branch":"air"},{"name":"D\u0159ev\u00ed\u010d Hill Fort","lat":50.2475,"lon":13.82583333,"branch":"air"},{"name":"D\u017eb\u00e1n Castle","lat":50.21471944,"lon":13.71441667,"branch":"air"},{"name":"Huttalan linnavuori","lat":60.42277778,"lon":22.55166667,"branch":"air"},{"name":"Junkarsborg","lat":60.153344,"lon":23.786004,"branch":"air"},{"name":"Kiianlinna","lat":60.9337402,"lon":24.59321109,"branch":"air"},{"name":"Kokem\u00e4ki Castle","lat":61.274386,"lon":22.302661,"branch":"air"},{"name":"Laurinkallio","lat":61.16085641,"lon":24.7609245,"branch":"air"},{"name":"Veselice","lat":50.3458,"lon":16.0253,"branch":"air"},{"name":"Rapola Castle","lat":61.205786,"lon":24.056611,"branch":"air"},{"name":"Q11891944","lat":61.68257987,"lon":27.35717254,"branch":"air"},{"name":"Q11893807","lat":61.48654018,"lon":23.34556475,"branch":"air"},{"name":"Tenhola hillfort","lat":61.09690917,"lon":24.28741765,"branch":"air"},{"name":"Q11900141","lat":61.23617109,"lon":23.56993319,"branch":"air"},{"name":"Vartiokyl\u00e4n linnavuori","lat":60.22054403,"lon":25.12030411,"branch":"air"},{"name":"Vlada\u0159","lat":50.0789,"lon":13.2119,"branch":"air"},{"name":"Vran\u00edk","lat":49.8472442,"lon":14.9244258,"branch":"air"},{"name":"Fjellbr\u00e5takollen","lat":60.33094,"lon":10.16091,"branch":"air"},{"name":"V\u00fdrov","lat":50.2580214,"lon":13.6538264,"branch":"air"},{"name":"Q12018413","lat":49.0813617,"lon":17.8428097,"branch":"air"},{"name":"Q12019760","lat":49.5026619,"lon":17.5855689,"branch":"air"},{"name":"Hradec u \u0158epice","lat":49.2886,"lon":13.9225,"branch":"air"},{"name":"Hradec u Nem\u011btic","lat":49.1924797,"lon":13.8853817,"branch":"air"},{"name":"Hradisko svat\u00e9ho Klimenta","lat":49.0854,"lon":17.2177,"branch":"air"},{"name":"Hradisko u Ob\u0159an","lat":49.2324897,"lon":16.6642908,"branch":"air"},{"name":"Javornic\u00ed Castle","lat":49.9958,"lon":13.6422,"branch":"air"},{"name":"Vino\u0159 Gord","lat":50.1347433,"lon":14.5859647,"branch":"air"},{"name":"Sedlo","lat":49.190383333,"lon":13.569461111,"branch":"air"},{"name":"Lib\u011btice","lat":49.2201411,"lon":13.8742506,"branch":"air"},{"name":"Hr\u00e1dek","lat":50.5496153,"lon":14.0482042,"branch":"air"},{"name":"Q12020826","lat":49.0336,"lon":13.9461,"branch":"air"},{"name":"Hr\u00e1dn\u00edky","lat":49.9983,"lon":16.25,"branch":"air"},{"name":"Q12029678","lat":49.2813864,"lon":13.8107069,"branch":"air"},{"name":"Kryry Castle","lat":50.1722,"lon":13.4308,"branch":"air"},{"name":"Libu\u0161\u00edn","lat":50.1617,"lon":14.0369,"branch":"air"},{"name":"Castle Lopata","lat":49.6643,"lon":13.5563,"branch":"air"},{"name":"Moravsk\u00e1 T\u0159ebov\u00e1 Castle","lat":49.75694444,"lon":16.66583333,"branch":"air"},{"name":"Ne\u0161tich","lat":48.26511,"lon":17.196726,"branch":"air"},{"name":"Q12041995","lat":49.384,"lon":17.047,"branch":"air"},{"name":"Old\u0159\u00ed\u0161 Castle","lat":50.0908,"lon":15.1519,"branch":"air"},{"name":"Orlovice","lat":49.237,"lon":17.0888,"branch":"air"},{"name":"Palliardiho hradisko","lat":48.9607942,"lon":15.6844339,"branch":"air"},{"name":"Q12045733","lat":48.6429703,"lon":17.7901886,"branch":"air"},{"name":"Pohansko","lat":48.7289817,"lon":16.8966417,"branch":"air"},{"name":"Q12046034","lat":48.489167,"lon":17.270556,"branch":"air"},{"name":"Prav\u00fd Hradec","lat":50.17396944,"lon":14.40337222,"branch":"air"},{"name":"Pra\u0161n\u00edk","lat":48.648611,"lon":17.618056,"branch":"air"},{"name":"Zelen\u00e1 Hora","lat":49.3256486,"lon":17.0086739,"branch":"air"},{"name":"Q12050562","lat":49.0932,"lon":16.3865,"branch":"air"},{"name":"Tachov Castle","lat":49.7953,"lon":12.6311,"branch":"air"},{"name":"Mount Caburn","lat":50.8618,"lon":0.051,"branch":"air"},{"name":"Q12105721","lat":49.791683333,"lon":30.109430555,"branch":"air"},{"name":"Zamchysche","lat":51.2167,"lon":24.0333,"branch":"air"},{"name":"Q12150830","lat":49.545833333,"lon":31.440277777,"branch":"air"},{"name":"Sukhonosiv settlement","lat":50.19457,"lon":32.89927,"branch":"air"},{"name":"Great Khodosivka hill fort","lat":50.292638888,"lon":30.463888888,"branch":"air"},{"name":"Gorriza","lat":42.731158334,"lon":-1.848116146,"branch":"air"},{"name":"Bj\u00f8rnk\u00e6r Voldsted","lat":55.916752949,"lon":10.222926432,"branch":"air"},{"name":"B\u00e5dstedg\u00e5rd","lat":56.1338,"lon":10.1115,"branch":"air"},{"name":"Q12305757","lat":55.91027778,"lon":27.16638889,"branch":"air"},{"name":"Q12309481","lat":56.874048784,"lon":9.864618685,"branch":"air"},{"name":"Pot\u0161tejn","lat":50.0781,"lon":16.3086,"branch":"air"},{"name":"Castro of Zambujal","lat":39.074428558,"lon":-9.285777091,"branch":"air"},{"name":"Bunkenburg","lat":52.7615,"lon":9.55867,"branch":"air"},{"name":"Prague Castle","lat":50.09,"lon":14.4,"branch":"air"},{"name":"Kernav\u0117","lat":54.883333333,"lon":24.85,"branch":"air"},{"name":"Hill of Crosses","lat":56.015278,"lon":23.416667,"branch":"air"},{"name":"Dunadd","lat":56.085732275,"lon":-5.478923123,"branch":"air"},{"name":"Ismantorp Fortress","lat":56.745438,"lon":16.642681,"branch":"air"},{"name":"Castle of Jind\u0159ich\u016fv Hradec","lat":49.142019,"lon":15.001462,"branch":"air"},{"name":"Castro de Elvi\u00f1a","lat":43.32944444,"lon":-8.41527778,"branch":"air"},{"name":"Old Castle of Lieto","lat":60.48638889,"lon":22.37722222,"branch":"air"},{"name":"Alte Schanze","lat":53.8911,"lon":13.0633,"branch":"air"},{"name":"Alteburg","lat":51.3756,"lon":6.99722,"branch":"air"},{"name":"Cit\u00e2nia de Sanfins","lat":41.32305556,"lon":-8.38666667,"branch":"air"},{"name":"Sloup Castle","lat":50.73555556,"lon":14.58055556,"branch":"air"},{"name":"D\u00fan Ailinne","lat":53.115,"lon":-6.775,"branch":"air"},{"name":"Tustan","lat":49.19142,"lon":23.40952,"branch":"air"},{"name":"Chao Samart\u00edn","lat":43.1985,"lon":-6.925786,"branch":"air"},{"name":"Vy\u0161ehrad","lat":50.064427188,"lon":14.417644214,"branch":"air"},{"name":"Numantia","lat":41.809392,"lon":-2.444447,"branch":"air"},{"name":"Walton Castle","lat":51.4518,"lon":-2.84248,"branch":"air"},{"name":"Danebury Hill Camp","lat":51.1368,"lon":-1.5397,"branch":"air"},{"name":"Seeberg","lat":50.1319,"lon":12.2823,"branch":"air"},{"name":"Asseria","lat":44.00995,"lon":15.66792,"branch":"air"},{"name":"Beacon Hill Hillfort","lat":51.3126,"lon":-1.34462,"branch":"air"},{"name":"Bennigser Burg","lat":52.2301,"lon":9.63422,"branch":"air"},{"name":"Castle of Borsod","lat":48.312777777,"lon":20.749444444,"branch":"air"},{"name":"Castle of the Marquises of the V\u00e9lez","lat":37.69101996,"lon":-2.098415346,"branch":"air"},{"name":"Castro de Leceia","lat":38.728063,"lon":-9.281604,"branch":"air"},{"name":"Brusselstown Ring","lat":52.96296,"lon":-6.61645,"branch":"air"},{"name":"Bude\u010d","lat":50.1911,"lon":14.2442,"branch":"air"},{"name":"Gerenna Castle","lat":48.090694,"lon":20.431647,"branch":"air"},{"name":"Burg Borghausen","lat":51.1478,"lon":7.99611,"branch":"air"},{"name":"Chud\u00fd hr\u00e1dek","lat":50.58916667,"lon":14.50805556,"branch":"air"},{"name":"D\u00edv\u010d\u00ed k\u00e1men","lat":48.88924167,"lon":14.356975,"branch":"air"},{"name":"Eketorp Fort","lat":56.295555555,"lon":16.486111111,"branch":"air"},{"name":"Q1011655","lat":53.9341,"lon":9.47973,"branch":"air"},{"name":"Burg Hee\u00dfel","lat":52.43954,"lon":9.9799,"branch":"air"},{"name":"Hn\u011bv\u00edn Castle","lat":50.52027778,"lon":13.63347222,"branch":"air"},{"name":"Burg K\u00f6rse","lat":51.0889,"lon":14.43,"branch":"air"},{"name":"Rinkenwall","lat":48.5151,"lon":8.3656,"branch":"air"},{"name":"To\u010dn\u00edk Castle","lat":49.890594,"lon":13.88741,"branch":"air"},{"name":"Varbola Stronghold","lat":59.03984,"lon":24.510594,"branch":"air"},{"name":"B\u00e5rby borg","lat":56.502305,"lon":16.425508,"branch":"air"},{"name":"Burgwall Altkalen","lat":53.8967,"lon":12.7436,"branch":"air"},{"name":"Burgwall B\u00e4rwalde","lat":51.8228,"lon":13.2575,"branch":"air"},{"name":"Burgwall Dargun","lat":53.9089,"lon":12.8267,"branch":"air"},{"name":"Burgwall Feldberg","lat":53.3542,"lon":13.4522,"branch":"air"},{"name":"Burgwall Ganschendorf","lat":53.8164,"lon":13.0792,"branch":"air"},{"name":"Burgwall Glienke","lat":53.5836,"lon":13.4192,"branch":"air"},{"name":"Burgwall G\u00e4debehn","lat":53.6131,"lon":13.0875,"branch":"air"},{"name":"Burgwall Gro\u00df Below","lat":53.8061,"lon":13.2828,"branch":"air"},{"name":"Burgwall Hohenb\u00fcssow","lat":53.8164,"lon":13.2572,"branch":"air"},{"name":"Burgwall H\u00fchnerwinkel","lat":53.475,"lon":14.2547,"branch":"air"},{"name":"Burgwall Janow","lat":53.7594,"lon":13.3794,"branch":"air"},{"name":"Burgwall Hungerstorf","lat":53.6131,"lon":12.8081,"branch":"air"},{"name":"Burgwall Klempenow","lat":53.7967,"lon":13.3056,"branch":"air"},{"name":"Burgwall Laschendorf","lat":53.4828,"lon":12.4475,"branch":"air"},{"name":"Burgwall M\u00f6llenhagen","lat":53.5233,"lon":12.9278,"branch":"air"},{"name":"Burgwall Malchin","lat":53.7306,"lon":12.7736,"branch":"air"},{"name":"Burgwall Neu-Kentzlin","lat":53.7642,"lon":12.9806,"branch":"air"},{"name":"Burgwall Pleetz","lat":53.6586,"lon":13.4822,"branch":"air"},{"name":"Burgwall Quadensch\u00f6nfeld","lat":53.4178,"lon":13.3875,"branch":"air"},{"name":"Burgwall Riewend","lat":52.5414,"lon":12.7219,"branch":"air"},{"name":"Burgwall Schossow","lat":53.7089,"lon":13.1319,"branch":"air"},{"name":"Burgwall Utzedel","lat":53.8608,"lon":13.0842,"branch":"air"},{"name":"Burgwall T\u00fczen","lat":53.7231,"lon":13.0375,"branch":"air"},{"name":"Burgwall Weinberg-Waldsiedlung","lat":52.6347,"lon":12.9183,"branch":"air"},{"name":"Burgwall Wittenborn","lat":53.6047,"lon":13.675,"branch":"air"},{"name":"Q1016229","lat":53.4433,"lon":12.3197,"branch":"air"},{"name":"Kieve Gord","lat":53.2853,"lon":12.5972,"branch":"air"},{"name":"Caherdorgan North","lat":52.179267,"lon":-10.339503,"branch":"air"},{"name":"Calleva Atrebatum","lat":51.3573,"lon":-1.0829,"branch":"air"},{"name":"Castro of Baro\u00f1a","lat":42.694944444,"lon":-9.032219444,"branch":"air"},{"name":"Cit\u00e2nia de Sabroso","lat":41.511465,"lon":-8.341151,"branch":"air"},{"name":"Yecla la Vieja Hill Fort","lat":40.94710159,"lon":-6.487684,"branch":"air"},{"name":"Cheb Castle","lat":50.08122222,"lon":12.36605556,"branch":"air"},{"name":"Chimgi-Tura","lat":57.153333333,"lon":65.515555555,"branch":"air"},{"name":"Cit\u00e2nia de Briteiros","lat":41.5275,"lon":-8.31583333,"branch":"air"},{"name":"Cividade de \u00c2ncora","lat":41.78697586,"lon":-8.854977607,"branch":"air"},{"name":"Szabolcs earthwork","lat":48.171389,"lon":21.489722,"branch":"air"},{"name":"Eifgenburg","lat":51.0744,"lon":7.14333,"branch":"air"},{"name":"Hesselbacher Wallburg","lat":50.8853,"lon":8.33864,"branch":"air"},{"name":"Tr\u00e4by borg","lat":56.355306,"lon":16.506214,"branch":"air"},{"name":"Q1355071","lat":51.2365,"lon":7.82284,"branch":"air"},{"name":"Giant Castle","lat":49.10363889,"lon":13.59174444,"branch":"air"},{"name":"Kun\u011btice Mountain Castle","lat":50.08005833,"lon":15.81305556,"branch":"air"},{"name":"Fischerwall","lat":53.5214,"lon":13.1006,"branch":"air"},{"name":"Steinburg","lat":53.8424,"lon":9.56131,"branch":"air"},{"name":"Burgwall Wolkow","lat":53.888643,"lon":12.994827,"branch":"air"},{"name":"Lev\u00fd Hradec","lat":50.16916667,"lon":14.37361111,"branch":"air"},{"name":"Gr\u00e5borg","lat":56.666422,"lon":16.603991,"branch":"air"},{"name":"Wallanlage Weilenscheid","lat":51.1439,"lon":8.04833,"branch":"air"},{"name":"Grapenwerder","lat":53.5181,"lon":13.0903,"branch":"air"},{"name":"G\u00fcllener Ring","lat":51.3053,"lon":8.06861,"branch":"air"},{"name":"Rimberg","lat":50.8425,"lon":8.62944,"branch":"air"},{"name":"Hazmburk","lat":50.4341667,"lon":14.0141667,"branch":"air"},{"name":"White Castle","lat":55.908932,"lon":-2.6200264,"branch":"air"},{"name":"Woodbury","lat":50.3478,"lon":-3.6283,"branch":"air"},{"name":"Y Gaer Roman Fort","lat":51.9565,"lon":-3.4517,"branch":"air"},{"name":"Atxa","lat":42.8686261,"lon":-2.7038382,"branch":"air"},{"name":"Q8342715","lat":43.487335897,"lon":-6.093522458,"branch":"air"},{"name":"Castro of Fazouro","lat":43.60333333,"lon":-7.29880556,"branch":"air"},{"name":"Castro de Pend\u00eda","lat":43.432055,"lon":-6.772397,"branch":"air"},{"name":"Castro de Zo\u00f1\u00e1n","lat":43.426336111,"lon":-7.394366666,"branch":"air"},{"name":"Valdemarsmuren","lat":54.4817,"lon":9.49551,"branch":"air"},{"name":"Gord on S\u0142upeckie Lake","lat":52.297641,"lon":17.895766,"branch":"air"},{"name":"Gord in Mierczyce","lat":51.091601,"lon":16.323597,"branch":"air"},{"name":"Mi\u0119dzy\u015bwie\u0107 Gord","lat":49.7882,"lon":18.7729,"branch":"air"},{"name":"Grodzisko in Sopot","lat":54.451984,"lon":18.560644,"branch":"air"},{"name":"Grodzisko w Motyczu","lat":51.237833,"lon":22.394528,"branch":"air"},{"name":"Stare Bielsko Gord","lat":49.8244,"lon":19.0208,"branch":"air"},{"name":"Castle Hill","lat":54.6867,"lon":25.2914,"branch":"air"},{"name":"Q9283442","lat":53.154736354,"lon":22.1210847,"branch":"air"},{"name":"Saint Lawrence Mountain (Ka\u0142dus)","lat":53.328124,"lon":18.381658,"branch":"air"},{"name":"Archeopark in Chot\u011bbuz","lat":49.788156,"lon":18.5891618,"branch":"air"},{"name":"Strzelce Dolne Gord","lat":53.2119,"lon":18.1728,"branch":"air"},{"name":"Wysoka G\u00f3rka in Che\u0142m","lat":51.132575,"lon":23.479398,"branch":"air"},{"name":"Wyszogr\u00f3d (Bydgoszcz)","lat":53.1403,"lon":18.1531,"branch":"air"},{"name":"Zamczysko (gord in Bydgoszcz)","lat":53.1633,"lon":18.0578,"branch":"air"},{"name":"\u0141ysa G\u00f3ra (\u0141owicz-B\u0142o\u0144 Plain)","lat":52.2086,"lon":20.6392,"branch":"air"},{"name":"\u015awi\u0119ta G\u00f3ra (near Sta\u015bwiny)","lat":53.958945641,"lon":21.851663,"branch":"air"},{"name":"Castro de Lama de Ouri\u00e7o","lat":41.30123333,"lon":-8.61735,"branch":"air"},{"name":"Cabe\u00e7o das Fr\u00e1guas","lat":40.424126,"lon":-7.222761,"branch":"air"},{"name":"Castro de Castro Verde","lat":37.697617,"lon":-8.081885,"branch":"air"},{"name":"Castro of Chibanes","lat":38.56393,"lon":-8.918258,"branch":"air"},{"name":"Castro de Fi\u00e3es","lat":40.984260559,"lon":-8.516731262,"branch":"air"},{"name":"Castro of Monte Mozinho","lat":41.14638889,"lon":-8.31111111,"branch":"air"},{"name":"Castro de Moldes","lat":41.613986968,"lon":-8.784816741,"branch":"air"},{"name":"Castro de Nandufe","lat":40.544808,"lon":-8.069737,"branch":"air"},{"name":"Castro de Ovil","lat":40.97888889,"lon":-8.62083333,"branch":"air"},{"name":"Castro de Roques","lat":41.676948547,"lon":-8.725170135,"branch":"air"},{"name":"Castro de Sesimbra","lat":38.456052,"lon":-9.102709,"branch":"air"},{"name":"Q9706916","lat":41.28166667,"lon":-8.73055556,"branch":"air"},{"name":"Castro do Jarmelo","lat":40.590461,"lon":-7.132374,"branch":"air"},{"name":"Q9707085","lat":41.636196,"lon":-7.803563,"branch":"air"},{"name":"Esta\u00e7\u00e3o arqueol\u00f3gica da Pedra de Ouro","lat":39.03552,"lon":-9.035398,"branch":"air"},{"name":"Archaeological site of Cabe\u00e7o do Vouga","lat":40.62824987,"lon":-8.46702007,"branch":"air"},{"name":"Monte do Castelo","lat":41.579128265,"lon":-8.062769889,"branch":"air"},{"name":"Ru\u00ednas da muralha das Portas de Montemuro","lat":40.96627,"lon":-8.00977,"branch":"air"},{"name":"Povoado calcol\u00edtico do Cerro do Castelo","lat":37.439139,"lon":-7.766239,"branch":"air"},{"name":"Povoado fortificado e Santu\u00e1rio de Endov\u00e9lico","lat":38.64338684,"lon":-7.443149089,"branch":"air"},{"name":"Birkaborgen","lat":59.332759,"lon":17.546047,"branch":"air"},{"name":"Q10433120","lat":58.959892,"lon":14.847293,"branch":"air"},{"name":"Edestad 75:1","lat":56.23135278,"lon":15.32001944,"branch":"air"},{"name":"Iso Linnam\u00e4ki","lat":60.39975,"lon":25.652202,"branch":"air"},{"name":"Q10433138","lat":63.012246,"lon":17.622369,"branch":"air"},{"name":"Borren","lat":55.499329,"lon":13.31778,"branch":"air"},{"name":"Draget","lat":59.56472222,"lon":17.56083333,"branch":"air"},{"name":"Sharka Gord","lat":50.0958,"lon":14.3208,"branch":"air"},{"name":"Q10508868","lat":56.91376,"lon":14.89562,"branch":"air"},{"name":"G\u00e5seborg","lat":59.401667,"lon":17.762222,"branch":"air"},{"name":"Halvardsborg","lat":59.378048,"lon":15.775392,"branch":"air"},{"name":"Haraldsborg","lat":55.65407,"lon":12.0885,"branch":"air"},{"name":"Hundhamra","lat":59.25183,"lon":17.80438,"branch":"air"},{"name":"Klunkhytte Redoubt","lat":59.2682,"lon":14.8111,"branch":"air"},{"name":"Kollerborg","lat":59.24543,"lon":15.45648,"branch":"air"},{"name":"Little Redoubt Hill","lat":59.13412,"lon":16.775246,"branch":"air"},{"name":"Lundby Redoubt","lat":58.991808,"lon":17.195826,"branch":"air"},{"name":"Trindborg","lat":56.918761,"lon":16.852036,"branch":"air"},{"name":"Mariabergets fornborg","lat":59.16278889,"lon":18.02653056,"branch":"air"},{"name":"Mj\u00e4lleborgen","lat":63.169751,"lon":14.594414,"branch":"air"},{"name":"Norra M\u00f6ckleby Hillfort","lat":56.63805556,"lon":16.6,"branch":"air"},{"name":"Nyby hillfort","lat":59.4225,"lon":16.46194444,"branch":"air"},{"name":"Q10607915","lat":59.241734,"lon":16.620755,"branch":"air"},{"name":"Omh\u00e4llsberg","lat":59.08781,"lon":15.31354,"branch":"air"},{"name":"Orl\u00e5ngsj\u00f6s fornborg","lat":59.21998,"lon":18.05414,"branch":"air"},{"name":"Rogstaklippen","lat":63.078032,"lon":17.718311,"branch":"air"},{"name":"Q10657627","lat":59.51032,"lon":12.69156,"branch":"air"},{"name":"Sandby borg","lat":56.552528,"lon":16.639259,"branch":"air"},{"name":"Sibro Hillfort","lat":58.95259167,"lon":16.88983611,"branch":"air"},{"name":"Skansberget F\u00e5lln\u00e4s","lat":58.948184,"lon":17.775186,"branch":"air"},{"name":"Redoubt Hill in Hyltinge","lat":59.1267,"lon":16.79521,"branch":"air"},{"name":"Redoubt Hill in Segeltorp","lat":59.28022,"lon":17.92519,"branch":"air"},{"name":"Redoubt Hill in Vidja","lat":59.19042,"lon":18.0569,"branch":"air"},{"name":"Skansdal Hillfort","lat":59.02317,"lon":14.951855,"branch":"air"},{"name":"The Redoubt Hill","lat":58.012583,"lon":16.168352,"branch":"air"},{"name":"Sk\u00e4rholmens fornborg","lat":59.28388889,"lon":17.89694444,"branch":"air"},{"name":"Solg\u00e5rds hillfort","lat":59.22591944,"lon":17.97211111,"branch":"air"},{"name":"Stenby hillfort","lat":59.36972222,"lon":16.46527778,"branch":"air"},{"name":"Stenhammar skans","lat":59.03923,"lon":16.53674,"branch":"air"},{"name":"Stens\u00e4ttra fornborg","lat":59.21416667,"lon":17.99194444,"branch":"air"},{"name":"Q10681202","lat":58.956538,"lon":17.82982,"branch":"air"},{"name":"Tarstaborg","lat":59.093784,"lon":15.343228,"branch":"air"},{"name":"Q4392131","lat":60.177922,"lon":56.450547,"branch":"air"},{"name":"Q4395669","lat":59.14472,"lon":56.19389,"branch":"air"},{"name":"Roden","lat":49.717777777,"lon":31.541944444,"branch":"air"},{"name":"Q4396220","lat":58.49671,"lon":55.271941,"branch":"air"},{"name":"Satezele","lat":57.17194444,"lon":24.87055556,"branch":"air"},{"name":"Sibbesborg","lat":60.292279,"lon":25.319489,"branch":"air"},{"name":"Hill fort of annalistic city of Sviatopolch","lat":50.100694444,"lon":30.891944444,"branch":"air"},{"name":"Semibratneye","lat":45.137777777,"lon":37.509166666,"branch":"air"},{"name":"Q4439965","lat":56.510688,"lon":34.925281,"branch":"air"},{"name":"Titchikha hillfort","lat":51.17417,"lon":39.26389,"branch":"air"},{"name":"Tykhomel Hill Fort","lat":49.960864,"lon":26.261181,"branch":"air"},{"name":"Trakhtemyrivske horodyshche","lat":49.979166666,"lon":31.376111111,"branch":"air"},{"name":"Tumashch Hill Fort","lat":50.156033,"lon":30.566025,"branch":"air"},{"name":"Q4499421","lat":58.60666667,"lon":31.41666667,"branch":"air"},{"name":"Q4500343","lat":53.19858,"lon":35.31557,"branch":"air"},{"name":"Q4500400","lat":51.89166667,"lon":26.85833333,"branch":"air"},{"name":"Q4528967","lat":55.44194444,"lon":37.65027778,"branch":"air"},{"name":"Yaropolch Zalessky archaeological site","lat":56.23555,"lon":42.243754,"branch":"air"},{"name":"Auk\u0161tup\u0117nai mound","lat":55.84772222,"lon":24.97561111,"branch":"air"},{"name":"Balksbury","lat":51.1989,"lon":-1.50034,"branch":"air"},{"name":"Bathampton Down","lat":51.3847,"lon":-2.3262,"branch":"air"},{"name":"Beacon Castle","lat":51.1977,"lon":-3.9127,"branch":"air"},{"name":"Berry Camp","lat":50.691,"lon":-3.139,"branch":"air"},{"name":"Bhushangad","lat":17.4648,"lon":74.4063,"branch":"air"},{"name":"Black Castle","lat":55.88698,"lon":-2.6732013,"branch":"air"},{"name":"Broomfield Camp","lat":51.0824,"lon":-3.1199,"branch":"air"},{"name":"Bwrdd Arthur","lat":53.3108,"lon":-4.1229,"branch":"air"},{"name":"Castelo de Montel","lat":37.75194931,"lon":-7.939899921,"branch":"air"},{"name":"Castelo de Oleiros","lat":41.301484,"lon":-6.45813,"branch":"air"},{"name":"Castelo do Mau Vizinho ou dos Mouros","lat":41.817058563,"lon":-7.233142852,"branch":"air"},{"name":"Castle Dyke","lat":50.5828,"lon":-3.52488,"branch":"air"},{"name":"Castle Head, Devon","lat":50.584,"lon":-4.287,"branch":"air"},{"name":"Castle Neroche","lat":50.9369,"lon":-3.03796,"branch":"air"},{"name":"Castle Old Fort","lat":52.6271,"lon":-1.90943,"branch":"air"},{"name":"Castro of Cidadelhe","lat":41.17861111,"lon":-7.84444444,"branch":"air"},{"name":"Castro de Sac\u00f3ias","lat":41.86312778,"lon":-6.69023333,"branch":"air"},{"name":"Charterhouse Camp","lat":51.299,"lon":-2.71271,"branch":"air"},{"name":"Cleeve Toot Camp","lat":51.3872,"lon":-2.77306,"branch":"air"},{"name":"Creech Hill","lat":51.1282,"lon":-2.47845,"branch":"air"},{"name":"Long Wood Enclosure","lat":51.1536,"lon":-3.45803,"branch":"air"},{"name":"Cunnilear Camp","lat":51.1141,"lon":-3.9826,"branch":"air"},{"name":"Q5198869","lat":43.091027777,"lon":-5.702888888,"branch":"air"},{"name":"Daw's Castle","lat":51.1805,"lon":-3.34357,"branch":"air"},{"name":"Denbury Hill","lat":50.5,"lon":-3.65,"branch":"air"},{"name":"Dinghurst Fort","lat":51.3287,"lon":-2.7987,"branch":"air"},{"name":"Dolbury","lat":50.794,"lon":-3.464,"branch":"air"},{"name":"Duncorn Hill","lat":51.3529,"lon":-2.4056,"branch":"air"},{"name":"D\u00f9n Dubh","lat":56.6416,"lon":-6.59551,"branch":"air"},{"name":"D\u00f9n Meadhonach","lat":56.072,"lon":-6.2359,"branch":"air"},{"name":"D\u00f9n a' Choin Duibh","lat":55.819897,"lon":-5.5064644,"branch":"air"},{"name":"Elgandal Fort","lat":18.420751,"lon":79.042601,"branch":"air"},{"name":"Emb\u016bte hillfort","lat":56.51074962,"lon":21.820689053,"branch":"air"},{"name":"Q5392112","lat":60.38879963,"lon":23.0538008,"branch":"air"},{"name":"Otrala hill fort","lat":61.60209959,"lon":27.3132931,"branch":"air"},{"name":"Linnanluoto","lat":61.2771514,"lon":22.38472615,"branch":"air"},{"name":"La Custodia","lat":42.50453398,"lon":-2.39122745,"branch":"air"},{"name":"Hakoinen Castle","lat":60.877677,"lon":24.587389,"branch":"air"},{"name":"Gaer hill fort, Trellech","lat":51.730347,"lon":-2.7356196,"branch":"air"},{"name":"Grodzisko in Sopot","lat":54.45202,"lon":18.55928,"branch":"air"},{"name":"Hascombe Hill","lat":51.1375,"lon":-0.5652,"branch":"air"},{"name":"Hembury Castle, Tythecott","lat":50.939,"lon":-4.24003,"branch":"air"},{"name":"Castilviejo de Guijosa","lat":41.09833333,"lon":-2.55194444,"branch":"air"},{"name":"Castro de Abiada","lat":43.020555555,"lon":-4.301944444,"branch":"air"},{"name":"El Castillo Hill Fort","lat":41.01777778,"lon":-6.64972222,"branch":"air"},{"name":"Castro de La Loma","lat":42.801944,"lon":-4.73,"branch":"air"},{"name":"Las Merchanas Hill Fort","lat":40.971666666,"lon":-6.656111111,"branch":"air"},{"name":"Castro de Las Rabas","lat":42.948444444,"lon":-4.121666666,"branch":"air"},{"name":"Q5757995","lat":43.3403905,"lon":-3.2393796,"branch":"air"},{"name":"Q5758006","lat":43.32916667,"lon":-5.90222222,"branch":"air"},{"name":"Ru\u00ednas da cidade velha de Santa Luzia","lat":41.705253,"lon":-8.835282,"branch":"air"},{"name":"Q6022384","lat":43.3669236,"lon":-3.212247,"branch":"air"},{"name":"Pe\u00f1a Mo\u00f1uz","lat":40.85888889,"lon":-2.20861111,"branch":"air"},{"name":"Q6075182","lat":43.2844,"lon":-5.65141,"branch":"air"},{"name":"Tilbe\u015f H\u00f6y\u00fck","lat":37.0888,"lon":37.8734,"branch":"air"},{"name":"Karmazinai mound","lat":54.81916667,"lon":24.93111111,"branch":"air"},{"name":"King's Castle","lat":51.2083,"lon":-2.6188,"branch":"air"},{"name":"King's Castle","lat":51.04601,"lon":-3.29096,"branch":"air"},{"name":"La Hoya","lat":42.565,"lon":-2.5864,"branch":"air"},{"name":"Liinmaa Castle","lat":61.217966,"lon":21.608839,"branch":"air"},{"name":"Little Woodbury","lat":51.0503,"lon":-1.78881,"branch":"air"},{"name":"Makalidurga","lat":13.432604,"lon":77.50096,"branch":"air"},{"name":"Moel y Gaer, Llantysilio","lat":53.008137,"lon":-3.242852,"branch":"air"},{"name":"Nemyriv Hill Fort","lat":48.948333333,"lon":28.890833333,"branch":"air"},{"name":"Oram's Arbour","lat":51.0647,"lon":-1.32202,"branch":"air"},{"name":"Pil\u0117nai","lat":54.51194444,"lon":24.09027778,"branch":"air"},{"name":"Road Castle","lat":51.1261,"lon":-3.6264,"branch":"air"},{"name":"Roborough Castle","lat":51.199,"lon":-3.81825,"branch":"air"},{"name":"Rodhuish Common","lat":51.1435,"lon":-3.4323,"branch":"air"},{"name":"Scratchbury Camp","lat":51.1975,"lon":-2.12756,"branch":"air"},{"name":"T\u0113rvete hillfort","lat":56.48222222,"lon":23.38527778,"branch":"air"},{"name":"Slapton Castle","lat":50.2871,"lon":-3.67419,"branch":"air"},{"name":"St. Catherine's Hill","lat":51.0459,"lon":-1.311,"branch":"air"},{"name":"Eriksvolde","lat":54.7875,"lon":11.4425,"branch":"air"},{"name":"Hejrede Vold","lat":54.735,"lon":11.565,"branch":"air"},{"name":"Hindsgavl Voldsted","lat":55.507278847,"lon":9.682145193,"branch":"air"},{"name":"Hjortholm Voldsted","lat":55.7845,"lon":12.4432,"branch":"air"},{"name":"Holb\u00e6k Slot","lat":55.717849127,"lon":11.705423773,"branch":"air"},{"name":"Q12317805","lat":55.5206,"lon":9.65861,"branch":"air"},{"name":"Q12321879","lat":55.7942,"lon":11.9128,"branch":"air"},{"name":"Q12322625","lat":54.5349,"lon":9.74097,"branch":"air"},{"name":"Q12323356","lat":55.915957745,"lon":10.083443388,"branch":"air"},{"name":"Margarethenwall","lat":54.49078,"lon":9.54587,"branch":"air"},{"name":"Hillfort Star\u00e1 Kou\u0159im","lat":50.0000842,"lon":14.9910239,"branch":"air"},{"name":"Star\u00e9 Z\u00e1mky","lat":49.217387222,"lon":16.713408611,"branch":"air"},{"name":"Q12328476","lat":55.6647,"lon":12.0103,"branch":"air"},{"name":"N\u00e6sbyhoved Slot","lat":55.41342,"lon":10.37545,"branch":"air"},{"name":"N\u00f8rtorp","lat":57.101179339,"lon":8.629281497,"branch":"air"},{"name":"S\u00f8by Volde","lat":54.920465433,"lon":10.281267442,"branch":"air"},{"name":"Q12339407","lat":54.9656,"lon":12.5381,"branch":"air"},{"name":"Troldborg Ring","lat":55.678788451,"lon":9.342544394,"branch":"air"},{"name":"Q12340678","lat":55.748529348,"lon":12.220305431,"branch":"air"},{"name":"Visselbjerg","lat":55.593128236,"lon":8.382646269,"branch":"air"},{"name":"Aalevad","lat":54.719807404,"lon":11.610551928,"branch":"air"},{"name":"Q12342073","lat":56.814370658,"lon":8.349663479,"branch":"air"},{"name":"Alatskivi hillfort","lat":58.607027,"lon":27.131344,"branch":"air"},{"name":"Q12358964","lat":58.286527,"lon":26.324565,"branch":"air"},{"name":"Q12358972","lat":59.415008878,"lon":27.174718345,"branch":"air"},{"name":"Avispea linnus","lat":59.113769,"lon":26.369219,"branch":"air"},{"name":"Q12361758","lat":58.640606,"lon":26.621593,"branch":"air"},{"name":"Q12362345","lat":58.282747,"lon":26.323635,"branch":"air"},{"name":"Iru hillfort","lat":59.45611111,"lon":24.90333333,"branch":"air"},{"name":"J\u00e4gala hill fort","lat":59.466259791,"lon":25.159586102,"branch":"air"},{"name":"J\u00e4neda hill fort","lat":59.238676314,"lon":25.684771628,"branch":"air"},{"name":"Kassinurme hill fort","lat":58.700417647,"lon":26.451172797,"branch":"air"},{"name":"Q12366688","lat":58.957919444,"lon":24.947922222,"branch":"air"},{"name":"Q12367393","lat":58.809026,"lon":24.421101,"branch":"air"},{"name":"Q12367906","lat":59.450895,"lon":25.436832,"branch":"air"},{"name":"Q12368879","lat":58.914845,"lon":24.710431,"branch":"air"},{"name":"Palalinn","lat":58.495833333,"lon":26.694444444,"branch":"air"},{"name":"Q12369219","lat":58.265639,"lon":27.125504,"branch":"air"},{"name":"L\u00f5havere hill fort","lat":58.549684,"lon":25.515257,"branch":"air"},{"name":"Q12370184","lat":58.878286,"lon":25.973945,"branch":"air"},{"name":"Q12370647","lat":58.668791,"lon":25.204221,"branch":"air"},{"name":"Naanu hillfort","lat":58.434511152,"lon":25.684682844,"branch":"air"},{"name":"Padise hill fort","lat":59.218897363,"lon":24.142468888,"branch":"air"},{"name":"Pakam\u00e4gi","lat":58.941389,"lon":24.746619,"branch":"air"},{"name":"Peedu Kerikm\u00e4gi","lat":58.242219,"lon":26.45126,"branch":"air"},{"name":"Q12372945","lat":59.4092,"lon":27.01335,"branch":"air"},{"name":"P\u00e4\u00e4lda hill fort","lat":58.621456955,"lon":23.209153337,"branch":"air"},{"name":"Ripuka Punam\u00e4gi","lat":58.841475,"lon":26.305875,"branch":"air"},{"name":"Q12374423","lat":57.728248968,"lon":26.932293447,"branch":"air"},{"name":"Q12374472","lat":58.537222222,"lon":26.725277777,"branch":"air"},{"name":"Sinialliku hill fort","lat":58.307358,"lon":25.5519,"branch":"air"},{"name":"Soontagana hill fort","lat":58.6615,"lon":24.16193,"branch":"air"},{"name":"Q12378265","lat":59.486030729,"lon":26.330830739,"branch":"air"},{"name":"Vehrulitsa Hillfort","lat":57.932730555,"lon":27.655594444,"branch":"air"},{"name":"Q12378646","lat":58.765882,"lon":26.49375,"branch":"air"},{"name":"Voorem\u00e4gi","lat":58.09637,"lon":26.071774,"branch":"air"},{"name":"\u00c4ntu hill fort","lat":59.04605637,"lon":26.236509956,"branch":"air"},{"name":"Q12380459","lat":42.718888888,"lon":-8.248611111,"branch":"air"},{"name":"Q12385708","lat":43.173888888,"lon":-8.329444444,"branch":"air"},{"name":"Q12385709","lat":42.111355,"lon":-8.852599,"branch":"air"},{"name":"Q12385711","lat":42.971944444,"lon":-7.973055555,"branch":"air"},{"name":"Castro of A Lanzada","lat":42.429178,"lon":-8.874939,"branch":"air"},{"name":"Q12385714","lat":42.382513888,"lon":-8.709155555,"branch":"air"},{"name":"Q12385715","lat":43.55475,"lon":-7.049416666,"branch":"air"},{"name":"Abegondo hillfort","lat":43.223888888,"lon":-8.3,"branch":"air"},{"name":"Q12385719","lat":42.823055555,"lon":-8.67,"branch":"air"},{"name":"Q12385721","lat":43.2122103,"lon":-8.3399068,"branch":"air"},{"name":"Q12385722","lat":43.2375,"lon":-8.29,"branch":"air"},{"name":"Q12385723","lat":43.576111111,"lon":-8.195833333,"branch":"air"},{"name":"Q12385724","lat":43.544625,"lon":-8.178580555,"branch":"air"},{"name":"Castro of Castromao","lat":42.161722222,"lon":-7.977169444,"branch":"air"},{"name":"Q12385727","lat":42.182222222,"lon":-8.440277777,"branch":"air"},{"name":"Q12385728","lat":43.63541,"lon":-7.554974,"branch":"air"},{"name":"Q12385730","lat":43.2298778,"lon":-8.2487528,"branch":"air"},{"name":"Q12385731","lat":43.338055555,"lon":-8.303611111,"branch":"air"},{"name":"Q12385732","lat":43.5538768,"lon":-8.1305537,"branch":"air"},{"name":"Q12385735","lat":43.478236111,"lon":-8.242858333,"branch":"air"},{"name":"Q12385736","lat":42.878333333,"lon":-8.755555555,"branch":"air"},{"name":"Q12385737","lat":42.865833333,"lon":-8.665833333,"branch":"air"},{"name":"Q12385738","lat":43.196111,"lon":-8.2737456,"branch":"air"},{"name":"Q12385741","lat":43.2413102,"lon":-8.2843321,"branch":"air"},{"name":"Q12385742","lat":43.2280521,"lon":-8.2583444,"branch":"air"},{"name":"Q12385743","lat":42.416834,"lon":-8.127427,"branch":"air"},{"name":"Q12385745","lat":43.2100383,"lon":-8.324753,"branch":"air"},{"name":"Q12385748","lat":42.708111111,"lon":-7.776658333,"branch":"air"},{"name":"Q12385750","lat":43.351388888,"lon":-8.4575,"branch":"air"},{"name":"Q12385751","lat":43.31496,"lon":-8.32792,"branch":"air"},{"name":"Q12385752","lat":43.337030555,"lon":-8.47265,"branch":"air"},{"name":"Q12385753","lat":43.576880555,"lon":-8.225811111,"branch":"air"},{"name":"Q12385754","lat":43.543527777,"lon":-8.119194444,"branch":"air"},{"name":"Q12385755","lat":42.228055555,"lon":-7.778611111,"branch":"air"},{"name":"Q12385757","lat":43.3382,"lon":-8.489002777,"branch":"air"},{"name":"Q12385758","lat":43.552833333,"lon":-8.2143,"branch":"air"},{"name":"Q12385760","lat":43.256666666,"lon":-8.608611111,"branch":"air"},{"name":"Q12385761","lat":43.683333333,"lon":-7.401333333,"branch":"air"},{"name":"Q12385762","lat":43.3311671,"lon":-8.273491,"branch":"air"},{"name":"Q12385763","lat":41.904002777,"lon":-7.605286111,"branch":"air"},{"name":"Q12385764","lat":43.251111111,"lon":-8.628055555,"branch":"air"},{"name":"Q12385765","lat":43.005479,"lon":-8.309816,"branch":"air"},{"name":"Q12385766","lat":43.559718,"lon":-8.283192,"branch":"air"},{"name":"Sauseriai hillfort","lat":55.952,"lon":21.53277778,"branch":"air"},{"name":"Senkai hillfort","lat":55.941322,"lon":21.215503,"branch":"air"},{"name":"Q16472255","lat":56.12608333,"lon":21.24927778,"branch":"air"},{"name":"Q16472259","lat":56.13538889,"lon":21.23702778,"branch":"air"},{"name":"Senoji \u012epiltis hillfort","lat":56.12313889,"lon":21.24663889,"branch":"air"},{"name":"Q16472430","lat":55.4475,"lon":22.59861111,"branch":"air"},{"name":"Hillfort Skomant\u0173","lat":55.56052778,"lon":21.51933333,"branch":"air"},{"name":"Smiltnieku pilskalns","lat":56.627946225,"lon":23.015561251,"branch":"air"},{"name":"Soki\u0161kiai hillfort","lat":55.55175,"lon":26.30083333,"branch":"air"},{"name":"Q16472952","lat":55.39333333,"lon":22.06055556,"branch":"air"},{"name":"Q16473004","lat":55.17994444,"lon":26.53477778,"branch":"air"},{"name":"Q16473016","lat":54.58572222,"lon":24.35602778,"branch":"air"},{"name":"Q16473017","lat":54.59097222,"lon":24.34519444,"branch":"air"},{"name":"Stalo Kalnas","lat":54.6872,"lon":25.3013,"branch":"air"},{"name":"Q16473131","lat":55.53066667,"lon":21.46366667,"branch":"air"},{"name":"Sta\u0161ai\u010diai hillfort","lat":55.25988889,"lon":24.16825,"branch":"air"},{"name":"Stirniai hillfort","lat":54.71913889,"lon":25.04663889,"branch":"air"},{"name":"Sudargas hillforts","lat":55.0475,"lon":22.64638889,"branch":"air"},{"name":"Q16473578","lat":55.34597222,"lon":25.5135,"branch":"air"},{"name":"Q16473660","lat":54.99197222,"lon":25.49669444,"branch":"air"},{"name":"Svobi\u0161k\u0117lis Hillfort","lat":55.34491667,"lon":25.38541667,"branch":"air"},{"name":"Q16473746","lat":55.42630556,"lon":25.90575,"branch":"air"},{"name":"S\u016bngaili\u0161kis hillfort","lat":55.49236111,"lon":25.45941667,"branch":"air"},{"name":"Q16473887","lat":55.01872222,"lon":24.44713889,"branch":"air"},{"name":"Q16474219","lat":55.11055556,"lon":24.73927778,"branch":"air"},{"name":"Q16474252","lat":55.38569444,"lon":25.13291667,"branch":"air"},{"name":"Q16474276","lat":54.64666667,"lon":24.93788889,"branch":"air"},{"name":"Q16474424","lat":54.85777778,"lon":22.86191667,"branch":"air"},{"name":"Q16474458","lat":55.594,"lon":23.216,"branch":"air"},{"name":"Ukmerg\u0117 Hillfort","lat":55.24961111,"lon":24.76855556,"branch":"air"},{"name":"Uoksai hillfort","lat":55.52475,"lon":21.52511111,"branch":"air"},{"name":"Oli\u0146kalns","lat":56.59083333,"lon":25.6425,"branch":"air"},{"name":"Upenieku pilskalns","lat":56.528682961,"lon":21.907384577,"branch":"air"},{"name":"U\u017epelki\u0173 piliakalnis","lat":56.07130556,"lon":21.82355556,"branch":"air"},{"name":"Vaduvos hillfort","lat":55.84591667,"lon":25.27811111,"branch":"air"},{"name":"Q16475014","lat":55.53663889,"lon":25.69719444,"branch":"air"},{"name":"Q16475128","lat":55.20525,"lon":24.78672222,"branch":"air"},{"name":"Vai\u010diai hillfort","lat":55.46875,"lon":22.26463889,"branch":"air"},{"name":"Q16475231","lat":54.32030556,"lon":24.92836111,"branch":"air"},{"name":"Q16475541","lat":54.77016667,"lon":24.15988889,"branch":"air"},{"name":"Varnikai hillfort","lat":54.64986111,"lon":24.94713889,"branch":"air"},{"name":"Q16475717","lat":55.51027778,"lon":22.35916667,"branch":"air"},{"name":"Q16475736","lat":56.30775,"lon":21.74811111,"branch":"air"},{"name":"Veivir\u017e\u0117nai hillfort","lat":55.59969444,"lon":21.60397222,"branch":"air"},{"name":"Veliku\u0161k\u0117s 2nd hillfort","lat":55.82719444,"lon":25.86805556,"branch":"air"},{"name":"Vel\u017eiai hillfort","lat":55.78013889,"lon":23.65163889,"branch":"air"},{"name":"Vencavai hillfort","lat":55.68647222,"lon":25.98194444,"branch":"air"},{"name":"Q16475792","lat":55.35747222,"lon":21.66244444,"branch":"air"},{"name":"Q16475880","lat":54.28522222,"lon":23.56441667,"branch":"air"},{"name":"Q16475881","lat":54.28458333,"lon":23.59463889,"branch":"air"},{"name":"Q16476298","lat":55.38777778,"lon":22.06,"branch":"air"},{"name":"Q16476465","lat":54.74433333,"lon":23.12319444,"branch":"air"},{"name":"Vingaudas hillfort","lat":55.9424469,"lon":23.3331156,"branch":"air"},{"name":"Vitk\u016bnai hillfort","lat":55.62661111,"lon":26.37236111,"branch":"air"},{"name":"Q16476723","lat":55.40052778,"lon":25.44416667,"branch":"air"},{"name":"Q16476883","lat":54.39383333,"lon":24.58883333,"branch":"air"},{"name":"Vorms\u0101tes pilskalns","lat":56.555955687,"lon":21.945637086,"branch":"air"},{"name":"Vor\u0117nai hillfort","lat":55.35738889,"lon":25.60969444,"branch":"air"},{"name":"Hillfort Vosg\u0117li\u0173","lat":55.72069444,"lon":25.74855556,"branch":"air"},{"name":"Q16476958","lat":55.59316667,"lon":21.56597222,"branch":"air"},{"name":"V\u0117lai\u010di\u0173 hillfort","lat":55.91427778,"lon":21.52236111,"branch":"air"},{"name":"Q16477380","lat":54.28783333,"lon":23.84938889,"branch":"air"},{"name":"Q16477527","lat":55.29238889,"lon":24.84866667,"branch":"air"},{"name":"Q16477644","lat":54.07027778,"lon":23.8675,"branch":"air"},{"name":"\u010ciul\u0117nai hillfort","lat":55.29152778,"lon":25.51641667,"branch":"air"},{"name":"Q16477752","lat":54.88371944,"lon":24.85019167,"branch":"air"},{"name":"Q16477847","lat":54.54861111,"lon":23.99805556,"branch":"air"},{"name":"\u0160an\u010diai Hillfort","lat":54.99163889,"lon":24.05744444,"branch":"air"},{"name":"\u0160arnel\u0117 hillfort","lat":56.13052778,"lon":21.95633333,"branch":"air"},{"name":"Q16477964","lat":55.58044444,"lon":23.02897222,"branch":"air"},{"name":"Q16477976","lat":55.46366667,"lon":25.94963889,"branch":"air"},{"name":"\u0160eimyni\u0161kiai hillfort","lat":55.65894444,"lon":25.62502778,"branch":"air"},{"name":"\u0160eimyni\u0161k\u0117liai hillfort","lat":55.54555556,"lon":25.13861111,"branch":"air"},{"name":"\u0160ereitlaukio II piliakalnis","lat":55.05238889,"lon":22.11488889,"branch":"air"},{"name":"\u0160ereitlaukio I piliakalnis","lat":55.04197222,"lon":22.11863889,"branch":"air"},{"name":"Q16478170","lat":55.63238889,"lon":25.74119444,"branch":"air"},{"name":"Q16478225","lat":55.58919444,"lon":22.58675,"branch":"air"},{"name":"Q16478296","lat":56.01788889,"lon":22.88877778,"branch":"air"},{"name":"\u0160imoniai hillfort","lat":56.05513889,"lon":24.31686111,"branch":"air"},{"name":"Q16478358","lat":55.68763889,"lon":22.189,"branch":"air"},{"name":"\u0160iurai\u010diai hillfort","lat":55.68658333,"lon":22.19438889,"branch":"air"},{"name":"Q16478362","lat":54.23413,"lon":22.88418,"branch":"air"},{"name":"Q16478371","lat":55.56369444,"lon":21.61961111,"branch":"air"},{"name":"Q16478402","lat":54.15863889,"lon":23.64955556,"branch":"air"},{"name":"Q16478469","lat":55.45211111,"lon":24.87813889,"branch":"air"},{"name":"\u0160ukioniai hillfort","lat":55.41127778,"lon":24.28719444,"branch":"air"},{"name":"Q16478653","lat":55.48405556,"lon":25.89005556,"branch":"air"},{"name":"Q16478679","lat":55.577,"lon":25.9895,"branch":"air"},{"name":"Q16478758","lat":54.30630556,"lon":23.09713889,"branch":"air"},{"name":"\u017dard\u0117s piliakalnis","lat":55.65238889,"lon":21.20741667,"branch":"air"},{"name":"\u017deimelis hillfort","lat":56.26944444,"lon":24.0,"branch":"air"},{"name":"\u017delvos hillfort","lat":55.32127778,"lon":25.54983333,"branch":"air"},{"name":"Q16478882","lat":56.10622222,"lon":22.01122222,"branch":"air"},{"name":"Panemun\u0117s Hillfort","lat":55.05275,"lon":23.45858333,"branch":"air"},{"name":"Q16478934","lat":56.06558333,"lon":21.97647222,"branch":"air"},{"name":"Q16479035","lat":54.29775,"lon":23.95375,"branch":"air"},{"name":"\u017duklijai 1st hillfort","lat":54.50994444,"lon":24.68261111,"branch":"air"},{"name":"\u017duvy\u010diai Hillfort","lat":54.68761111,"lon":24.60213889,"branch":"air"},{"name":"\u017dvaginiai hillfort","lat":55.74194444,"lon":21.68863889,"branch":"air"},{"name":"Fort by Lake Sillen","lat":59.03065,"lon":17.337256,"branch":"air"},{"name":"Burgwall Wolkow","lat":53.8806,"lon":12.9589,"branch":"air"},{"name":"Q1640244","lat":55.237402599,"lon":9.374278901,"branch":"air"},{"name":"R\u00e4llingeborg","lat":59.45,"lon":16.816667,"branch":"air"},{"name":"R\u00f6merschanze bei Potsdam","lat":52.4417302,"lon":13.0624219,"branch":"air"},{"name":"Kajborg","lat":54.8546,"lon":9.991,"branch":"air"},{"name":"Ravensburg","lat":53.5735,"lon":13.3138,"branch":"air"},{"name":"Q1748035","lat":50.4153,"lon":8.37083,"branch":"air"},{"name":"Kograben","lat":54.4671,"lon":9.50903,"branch":"air"},{"name":"Knocknashee Hillfort","lat":54.11805556,"lon":-8.66805556,"branch":"air"},{"name":"Castro de Vila Nova de S\u00e3o Pedro","lat":39.219773,"lon":-8.84031,"branch":"air"},{"name":"Moghane Hillfort","lat":52.77722222,"lon":-8.88638889,"branch":"air"},{"name":"Isker","lat":58.14942,"lon":68.52048,"branch":"air"},{"name":"Lisnagade","lat":54.333,"lon":-6.331,"branch":"air"},{"name":"Monte da Tumba","lat":38.28372,"lon":-8.231481,"branch":"air"},{"name":"Naglys Hill","lat":55.9325,"lon":21.06166667,"branch":"air"},{"name":"Sarskoye Gorodishche","lat":57.07438333,"lon":39.2889,"branch":"air"},{"name":"Lyubsha","lat":60.0,"lon":32.31666667,"branch":"air"},{"name":"Voruta","lat":55.54555556,"lon":25.13861111,"branch":"air"},{"name":"Olle Borg","lat":51.3347,"lon":7.88999,"branch":"air"},{"name":"Bilsk Hill fort","lat":50.091666666,"lon":34.641666666,"branch":"air"},{"name":"A\u015fl\u0131","lat":54.821389,"lon":48.735278,"branch":"air"},{"name":"Rub\u00edn Podbo\u0159any","lat":50.25416667,"lon":13.43777778,"branch":"air"},{"name":"Q2231013","lat":50.3651,"lon":8.53697,"branch":"air"},{"name":"Merzhausen Redoubt","lat":50.3082,"lon":8.46853,"branch":"air"},{"name":"Bechyn\u011b Castle","lat":49.29150556,"lon":14.46808333,"branch":"air"},{"name":"Chateau of D\u011b\u010d\u00edn","lat":50.7790139,"lon":14.209185,"branch":"air"},{"name":"Melnik Castle","lat":50.35078611,"lon":14.47325,"branch":"air"},{"name":"Pen Dinas","lat":52.403031,"lon":-4.0822568,"branch":"air"},{"name":"Schwonsburg","lat":54.62373,"lon":9.934526,"branch":"air"},{"name":"Bohyt","lat":49.18333333,"lon":26.16666667,"branch":"air"},{"name":"Q2351997","lat":57.216212,"lon":18.318291,"branch":"air"},{"name":"Senieji Trakai Castle","lat":54.605,"lon":24.98416667,"branch":"air"},{"name":"Castro of Santa Trega","lat":41.89275,"lon":-8.869808,"branch":"air"},{"name":"Triberga Castle","lat":56.471529,"lon":16.562121,"branch":"air"},{"name":"Uffington Castle","lat":51.57500217,"lon":-1.56927808,"branch":"air"},{"name":"Castri\u00f1o of Conxo","lat":42.86555556,"lon":-8.56722222,"branch":"air"},{"name":"Castro de Achadizo","lat":42.61638889,"lon":-8.88444444,"branch":"air"},{"name":"Castro de Bardaos","lat":43.123210504,"lon":-8.532843921,"branch":"air"},{"name":"Castro of Borneiro","lat":43.19472222,"lon":-8.95277778,"branch":"air"},{"name":"Castro of Porto de Baixo","lat":42.540330555,"lon":-9.033866666,"branch":"air"},{"name":"Castro of A Cid\u00e1","lat":42.561386111,"lon":-9.013627777,"branch":"air"},{"name":"Wallburg J\u00e4ckelchen","lat":51.09225,"lon":7.961555555,"branch":"air"},{"name":"Q2542632","lat":48.264938888,"lon":14.412319444,"branch":"air"},{"name":"Castle Berg","lat":48.7961,"lon":9.20611,"branch":"air"},{"name":"Q2676882","lat":51.147,"lon":14.394,"branch":"air"},{"name":"Caterthun","lat":56.784166666,"lon":-2.740833333,"branch":"air"},{"name":"Castro of San Cibrao de Las","lat":42.36,"lon":-8.03194,"branch":"air"},{"name":"Portilla/Zabalate castle","lat":42.67029722,"lon":-2.83386944,"branch":"air"},{"name":"Castro de Ulaca","lat":40.52965833,"lon":-4.88548611,"branch":"air"},{"name":"Castro of Viladonga","lat":43.160822,"lon":-7.3887,"branch":"air"},{"name":"Castro dos Prados","lat":43.72335,"lon":-7.812677777,"branch":"air"},{"name":"Castro of Vieito","lat":41.73065,"lon":-8.80716111,"branch":"air"},{"name":"Cividade de Terroso","lat":41.412521362,"lon":-8.721084594,"branch":"air"},{"name":"Castro do Monte das Ermidas","lat":41.45963405,"lon":-8.52332943,"branch":"air"},{"name":"Castro de S\u00e3o Louren\u00e7o","lat":41.55611111,"lon":-8.76111111,"branch":"air"},{"name":"Athelney","lat":51.0555,"lon":-2.931,"branch":"air"},{"name":"Apuol\u0117","lat":56.24444444,"lon":21.65555556,"branch":"air"},{"name":"Napoleon's Hill","lat":54.86194444,"lon":23.92611111,"branch":"air"},{"name":"Q3644182","lat":43.52196,"lon":-8.14037,"branch":"air"},{"name":"Castro da Cola","lat":37.57875278,"lon":-8.30046944,"branch":"air"},{"name":"Asote hillfort","lat":56.49277778,"lon":25.91888889,"branch":"air"},{"name":"Daugmale hill fort","lat":56.83138889,"lon":24.38166667,"branch":"air"},{"name":"Q4055652","lat":51.024722222,"lon":39.113888888,"branch":"air"},{"name":"Bayan-Under","lat":50.585287,"lon":105.900424,"branch":"air"},{"name":"Q4084563","lat":58.019448,"lon":39.152741,"branch":"air"},{"name":"Q4100664","lat":49.643888888,"lon":30.601944444,"branch":"air"},{"name":"Q4107798","lat":55.35777778,"lon":31.94027778,"branch":"air"},{"name":"Q4110154","lat":55.914850618,"lon":26.932359211,"branch":"air"},{"name":"Q4145212","lat":51.269722222,"lon":38.850277777,"branch":"air"},{"name":"Q4145213","lat":55.315434,"lon":49.386988,"branch":"air"},{"name":"Ufa 2 Archeology Site","lat":54.716,"lon":55.957,"branch":"air"},{"name":"Q4145396","lat":58.182724,"lon":31.865169,"branch":"air"},{"name":"Archeological site \"Chayka\"","lat":45.163892,"lon":33.29017,"branch":"air"},{"name":"Dmitrievka site of ancient settlement","lat":50.488888888,"lon":37.001388888,"branch":"air"},{"name":"Donets Gorodishche","lat":49.921944444,"lon":36.193055555,"branch":"air"},{"name":"Q4174471","lat":47.69305556,"lon":28.90083333,"branch":"air"},{"name":"Q4174814","lat":45.0,"lon":38.8,"branch":"air"},{"name":"Gorodok (Zvenigorod)","lat":55.733055555,"lon":36.84,"branch":"air"},{"name":"Gord in Zymne","lat":50.794722222,"lon":24.330555555,"branch":"air"},{"name":"Q4203874","lat":60.6847,"lon":56.76226,"branch":"air"},{"name":"Kamenskoye Gorodishche","lat":47.47917,"lon":34.42333,"branch":"air"},{"name":"Karamergen","lat":45.463055555,"lon":75.463333333,"branch":"air"},{"name":"Kaup","lat":54.933086111,"lon":20.473433333,"branch":"air"},{"name":"Krapivnoe site of ancient settlement","lat":50.456056,"lon":36.869849,"branch":"air"},{"name":"Q4239205","lat":43.749389,"lon":131.933694,"branch":"air"},{"name":"Q4244666","lat":59.013888888,"lon":54.649166666,"branch":"air"},{"name":"Q4250238","lat":58.226944444,"lon":52.300277777,"branch":"air"},{"name":"Kyz-Kermen","lat":44.710972222,"lon":33.919555555,"branch":"air"},{"name":"Q4250795","lat":58.882222222,"lon":56.121944444,"branch":"air"},{"name":"Lyudimsk","lat":54.4982966,"lon":35.7522154,"branch":"air"},{"name":"Q4279354","lat":58.81111,"lon":33.39167,"branch":"air"},{"name":"Motronynske Hill Fort","lat":49.155,"lon":32.248333333,"branch":"air"},{"name":"Nadlymanske Ancient Settlement","lat":46.383333333,"lon":30.316666666,"branch":"air"},{"name":"Nadym fortified settlement","lat":65.949593,"lon":71.578457,"branch":"air"},{"name":"Nikulchino hillfort","lat":58.58,"lon":49.90639,"branch":"air"},{"name":"Q4337110","lat":68.055194444,"lon":54.128222222,"branch":"air"},{"name":"Q4362493","lat":57.6115,"lon":49.0475,"branch":"air"},{"name":"Plisnesko Hill Fort","lat":49.926,"lon":24.977,"branch":"air"},{"name":"Raykovets hillfort","lat":49.9775,"lon":28.4857,"branch":"air"},{"name":"Q16464743","lat":54.88323611,"lon":24.85241111,"branch":"air"},{"name":"Q16464786","lat":54.51877778,"lon":24.56330556,"branch":"air"},{"name":"Q16464794","lat":55.05813889,"lon":23.29522222,"branch":"air"},{"name":"Molav\u0117nai hillforts","lat":55.45,"lon":22.87166667,"branch":"air"},{"name":"Q16465006","lat":56.16366667,"lon":21.57619444,"branch":"air"},{"name":"Q16465049","lat":55.96825,"lon":25.439,"branch":"air"},{"name":"Q16465200","lat":54.78847222,"lon":24.51336111,"branch":"air"},{"name":"Namdaru pilskalns","lat":56.55948,"lon":21.93729,"branch":"air"},{"name":"Nark\u016bnai hillfort","lat":55.47336111,"lon":25.55088889,"branch":"air"},{"name":"Naujaupis hillfort","lat":55.48666667,"lon":23.79694444,"branch":"air"},{"name":"Q16465464","lat":54.47363889,"lon":23.13255556,"branch":"air"},{"name":"Naujoji R\u0117va hillfort","lat":54.73966667,"lon":25.02275,"branch":"air"},{"name":"Hillfort Nagarba","lat":55.95069444,"lon":21.20897222,"branch":"air"},{"name":"Nemen\u010din\u0117 hillfort","lat":54.86063889,"lon":25.47347222,"branch":"air"},{"name":"Q16465706","lat":55.16616667,"lon":26.13994444,"branch":"air"},{"name":"Q16465786","lat":54.63772222,"lon":24.34322222,"branch":"air"},{"name":"Norman\u010diai hillfort","lat":55.79255556,"lon":23.28472222,"branch":"air"},{"name":"Q16465861","lat":55.567,"lon":25.74947222,"branch":"air"},{"name":"Obelyt\u0117","lat":54.35230556,"lon":23.78433333,"branch":"air"},{"name":"Obonys hillfort","lat":55.79013889,"lon":25.26352778,"branch":"air"},{"name":"Opstainys 2nd hillfort","lat":55.08627778,"lon":22.12597222,"branch":"air"},{"name":"Q16467845","lat":55.10008333,"lon":22.12519444,"branch":"air"},{"name":"Q16467918","lat":55.47361111,"lon":22.73888889,"branch":"air"},{"name":"Padievaitis hillfort","lat":55.53805556,"lon":21.99611111,"branch":"air"},{"name":"Q16468010","lat":55.57583333,"lon":22.24694444,"branch":"air"},{"name":"Padubysys hillfort","lat":55.39908333,"lon":23.24188889,"branch":"air"},{"name":"Q16468039","lat":55.13236111,"lon":25.97036111,"branch":"air"},{"name":"Pagar\u0161vys hillfort","lat":54.66566667,"lon":24.03,"branch":"air"},{"name":"Q16468159","lat":55.69138889,"lon":22.48222222,"branch":"air"},{"name":"Q16468263","lat":54.52319444,"lon":22.837,"branch":"air"},{"name":"Pakalni\u0161kiai Hillfort","lat":54.85608333,"lon":24.01905556,"branch":"air"},{"name":"Paka\u010din\u0117s hillfort","lat":55.81341667,"lon":25.88519444,"branch":"air"},{"name":"Q16468440","lat":55.32527778,"lon":25.31638889,"branch":"air"},{"name":"Q16468450","lat":55.91388889,"lon":21.68216667,"branch":"air"},{"name":"Palatavys hillfort","lat":55.5825,"lon":25.01194444,"branch":"air"},{"name":"Q16468628","lat":54.62605556,"lon":24.51166667,"branch":"air"},{"name":"Papar\u010diai hillfort","lat":54.90377778,"lon":24.73594444,"branch":"air"},{"name":"Q16468748","lat":55.66441667,"lon":22.70972222,"branch":"air"},{"name":"Q16468754","lat":54.38238889,"lon":23.09627778,"branch":"air"},{"name":"Papiliakaln\u0117 hillfort","lat":55.37522222,"lon":25.98347222,"branch":"air"},{"name":"Paplakas pilskalns","lat":56.43744,"lon":21.47552,"branch":"air"},{"name":"Q16468778","lat":55.83775,"lon":22.17933333,"branch":"air"},{"name":"Q16468796","lat":55.61436111,"lon":23.08538889,"branch":"air"},{"name":"Q16468906","lat":55.01461111,"lon":24.71283333,"branch":"air"},{"name":"Q16468909","lat":55.67891667,"lon":22.53713889,"branch":"air"},{"name":"Q16469039","lat":55.73252778,"lon":21.81369444,"branch":"air"},{"name":"Q16469055","lat":55.08716667,"lon":25.72,"branch":"air"},{"name":"Paveisininkai hillfort","lat":54.07505556,"lon":23.60716667,"branch":"air"},{"name":"Pavi\u0161tytis 2nd hillfort","lat":54.40508333,"lon":22.78341667,"branch":"air"},{"name":"Q16469126","lat":55.15458333,"lon":25.3485,"branch":"air"},{"name":"\u010ciudi\u0161kiai hillfort","lat":54.68338889,"lon":23.90163889,"branch":"air"},{"name":"Q16469189","lat":55.14566667,"lon":23.47466667,"branch":"air"},{"name":"Q16469233","lat":54.70175,"lon":24.06725,"branch":"air"},{"name":"Q16469259","lat":55.23011111,"lon":25.11555556,"branch":"air"},{"name":"Pelekonys hillfort II","lat":54.65613889,"lon":24.13744444,"branch":"air"},{"name":"Pelekonys hillfort IV","lat":54.67486111,"lon":24.13252778,"branch":"air"},{"name":"Pelekonys hillfort I","lat":54.65552778,"lon":24.12102778,"branch":"air"},{"name":"Q16469302","lat":55.37419444,"lon":25.63083333,"branch":"air"},{"name":"Q16469540","lat":55.78216667,"lon":25.99708333,"branch":"air"},{"name":"Q16469607","lat":55.07391667,"lon":23.7835,"branch":"air"},{"name":"Pie\u0161tuv\u0117nai hillfort","lat":54.63161111,"lon":24.32455556,"branch":"air"},{"name":"Piliakalnis hillfort (Alytus)","lat":54.26625,"lon":24.09761111,"branch":"air"},{"name":"Q16469662","lat":55.37516667,"lon":25.26641667,"branch":"air"},{"name":"Q16469671","lat":54.46555556,"lon":23.0475,"branch":"air"},{"name":"Q16469673","lat":55.07830556,"lon":25.28819444,"branch":"air"},{"name":"Q16469680","lat":55.2065,"lon":25.04966667,"branch":"air"},{"name":"Pili\u016bnai hillfort","lat":54.70258333,"lon":23.25594444,"branch":"air"},{"name":"Pilsupiai hillfort","lat":55.31,"lon":23.68305556,"branch":"air"},{"name":"Q16469700","lat":55.67141667,"lon":22.58905556,"branch":"air"},{"name":"Q16469709","lat":54.72863889,"lon":23.21669444,"branch":"air"},{"name":"Plok\u0161\u010diai hillfort","lat":55.07513889,"lon":23.18494444,"branch":"air"},{"name":"Porma\u013cu Sudrabkalns","lat":56.54943,"lon":25.65029,"branch":"air"},{"name":"Prienlaukys hillfort","lat":54.65375,"lon":23.86297222,"branch":"air"},{"name":"Prienai hillfort","lat":55.50223611,"lon":22.43891667,"branch":"air"},{"name":"Q16470139","lat":54.86005556,"lon":25.78672222,"branch":"air"},{"name":"Q16470223","lat":55.74005556,"lon":22.97569444,"branch":"air"},{"name":"Punia hillfort","lat":54.51194444,"lon":24.09027778,"branch":"air"},{"name":"Q16470275","lat":56.22891667,"lon":21.52483333,"branch":"air"},{"name":"Purms\u0101tu pilskalns","lat":56.37393,"lon":21.44862,"branch":"air"},{"name":"Q16470410","lat":55.44722222,"lon":22.78972222,"branch":"air"},{"name":"P\u016b\u0161kiai castle hill","lat":55.4705,"lon":26.54277778,"branch":"air"},{"name":"Q16470504","lat":54.13019444,"lon":24.03316667,"branch":"air"},{"name":"Rad\u017ei\u016bnai hillfort","lat":54.37427778,"lon":24.00525,"branch":"air"},{"name":"Q16470521","lat":54.53333333,"lon":22.8175,"branch":"air"},{"name":"Q16470531","lat":55.15586111,"lon":26.10472222,"branch":"air"},{"name":"Q16470652","lat":55.23683333,"lon":26.19911111,"branch":"air"},{"name":"Q16470866","lat":55.04469444,"lon":24.67163889,"branch":"air"},{"name":"Q16470986","lat":55.305,"lon":22.23111111,"branch":"air"},{"name":"Q16470994","lat":54.74905556,"lon":23.00802778,"branch":"air"},{"name":"Q16471027","lat":56.23297222,"lon":22.07552778,"branch":"air"},{"name":"Q16471089","lat":55.38216667,"lon":24.90172222,"branch":"air"},{"name":"Ringov\u0117s piliakalnis","lat":55.05130556,"lon":23.52122222,"branch":"air"},{"name":"Q16471280","lat":56.39619444,"lon":22.04863889,"branch":"air"},{"name":"Ro\u010di\u0161k\u0117 hillfort","lat":55.30966667,"lon":23.38291667,"branch":"air"},{"name":"Q16471549","lat":55.54933333,"lon":22.18847222,"branch":"air"},{"name":"Q16471626","lat":55.51619444,"lon":25.8385,"branch":"air"},{"name":"Q16471636","lat":54.85833333,"lon":24.19722222,"branch":"air"},{"name":"Q16471892","lat":55.50388889,"lon":21.41388889,"branch":"air"},{"name":"Samylai Hillfort","lat":54.85397222,"lon":24.1125,"branch":"air"},{"name":"Q16472043","lat":56.2088,"lon":24.40403,"branch":"air"},{"name":"Oppidum of Arrola","lat":43.312161,"lon":-2.608546,"branch":"air"},{"name":"Castro Pe\u00f1a del Hombre","lat":42.479444,"lon":-6.708889,"branch":"air"},{"name":"Il Castelletto","lat":45.324736111,"lon":11.731736111,"branch":"air"},{"name":"Q16635040","lat":56.2576,"lon":37.632,"branch":"air"},{"name":"Q16663310","lat":47.224633,"lon":39.784062,"branch":"air"},{"name":"Kholky site of ancient settlement","lat":50.865709,"lon":37.757209,"branch":"air"},{"name":"Q16714554","lat":50.59166667,"lon":35.87055556,"branch":"air"},{"name":"Q16715163","lat":49.17833333,"lon":37.43944444,"branch":"air"},{"name":"Trawscoed Fort","lat":52.3333,"lon":-3.93333,"branch":"air"},{"name":"Q16912767","lat":58.40194444,"lon":31.14277778,"branch":"air"},{"name":"Sulimir Gord","lat":51.631806,"lon":17.501406,"branch":"air"},{"name":"Pe\u00f1as de la Cerca","lat":42.064136743,"lon":-6.526643064,"branch":"air"},{"name":"Preitenstein Castle","lat":49.9609053,"lon":13.16147,"branch":"air"},{"name":"Old Brattingsborg Castle","lat":55.834287763,"lon":10.584101024,"branch":"air"},{"name":"Q17043501","lat":55.823943805,"lon":29.187085,"branch":"air"},{"name":"Q17043591","lat":55.476622,"lon":30.886457611,"branch":"air"},{"name":"Q17043772","lat":52.073716666,"lon":27.722141666,"branch":"air"},{"name":"Q17044965","lat":55.151241,"lon":30.1943497,"branch":"air"},{"name":"Mote of Mark","lat":54.86767,"lon":-3.80123,"branch":"air"},{"name":"Q17127886","lat":51.79108047,"lon":9.9485302,"branch":"air"},{"name":"Madaksira hill fort","lat":13.9440095,"lon":77.268655485,"branch":"air"},{"name":"Rayadurg Hill Fort","lat":14.701177573,"lon":76.834051415,"branch":"air"},{"name":"Penukonda Fort","lat":14.084708956,"lon":77.594979852,"branch":"air"},{"name":"Castro de Alvarelhos","lat":41.300838,"lon":-8.618242,"branch":"air"},{"name":"Castro da C\u00e1rcoda","lat":40.803690956,"lon":-8.120087385,"branch":"air"},{"name":"Castro do Monte Padr\u00e3o","lat":41.312499,"lon":-8.449245,"branch":"air"},{"name":"Esta\u00e7\u00e3o Arqueol\u00f3gica de Santa Marta das Corti\u00e7as","lat":41.514743804,"lon":-8.39457035,"branch":"air"},{"name":"Castro de Sabariz","lat":41.674933,"lon":-8.736613,"branch":"air"},{"name":"Castro de S\u00e3o Caetano","lat":42.040061,"lon":-8.443881,"branch":"air"},{"name":"Cava do Viriato","lat":40.668051,"lon":-7.909878,"branch":"air"},{"name":"Cit\u00e2nia da Longa","lat":41.07194971,"lon":-7.5924659,"branch":"air"},{"name":"Cit\u00e2nia de S\u00e3o Juli\u00e3o de Caldelas","lat":41.689399719,"lon":-8.393894195,"branch":"air"},{"name":"Castro de Bagunte","lat":41.383652,"lon":-8.655717,"branch":"air"},{"name":"Q17449921","lat":54.651614,"lon":27.3014975,"branch":"air"},{"name":"Earn\u2019s Heugh","lat":55.91513889,"lon":-2.17419444,"branch":"air"},{"name":"hillfort of Urri","lat":42.8181615,"lon":-1.537841222,"branch":"air"},{"name":"Tetbury Camp","lat":51.6345,"lon":-2.15876,"branch":"air"},{"name":"Perrott's Brook dykes","lat":51.7626,"lon":-1.99,"branch":"air"},{"name":"Boughton Quarry Camp","lat":51.23608,"lon":0.52777,"branch":"air"},{"name":"Hilton Wood Castle","lat":50.7704,"lon":-4.48004,"branch":"air"},{"name":"Large univallate hillfort with a bowl barrow and pillow mounds 970m west of The Bungalow","lat":51.4183,"lon":-2.41961,"branch":"air"},{"name":"Earlier prehistoric hillfort, stone hut circle settlement and field system at Helman Tor","lat":50.4222,"lon":-4.73023,"branch":"air"},{"name":"Studford Ring","lat":54.2112,"lon":-1.11025,"branch":"air"},{"name":"Trencrom Hill","lat":50.1738,"lon":-5.47763,"branch":"air"},{"name":"Verulamium, Prae Wood settlement","lat":51.7482,"lon":-0.376133,"branch":"air"},{"name":"Hillfort N of Burcombe Wood","lat":50.7871,"lon":-2.694,"branch":"air"},{"name":"High Brotheridge camp, Buckholt","lat":51.8215,"lon":-2.1625,"branch":"air"},{"name":"St Gennys promontory fort","lat":50.7488,"lon":-4.62968,"branch":"air"},{"name":"St Catherine's Hill camp and round barrows","lat":50.7582,"lon":-1.79854,"branch":"air"},{"name":"Hillfort, Cunnilear or Coneybeare Wood","lat":51.1137,"lon":-3.9829,"branch":"air"},{"name":"Hillfort and associated Romano-British occupation at Little Abbey, Alveston","lat":51.5965,"lon":-2.5064,"branch":"air"},{"name":"Large multivallate hillfort containing two bowl barrows 855m north east of North Eggardon Farm","lat":50.7503,"lon":-2.6524,"branch":"air"},{"name":"Hillfort on Warden Hill, 1km north-west of High Warden","lat":55.0052,"lon":-2.15131,"branch":"air"},{"name":"Reecastle Crag hillfort","lat":54.548,"lon":-3.12205,"branch":"air"},{"name":"Lordenshaw multivallate hillfort, Romano-British settlements, field system, cairnfield, cross dyke, round cairn cemetery, rock art and medieval park pale","lat":55.2872,"lon":-1.91406,"branch":"air"},{"name":"Hillfort on Banbury Hill","lat":50.9065,"lon":-2.30026,"branch":"air"},{"name":"Hillfort known as The Castle Fort at Castlebank Plantation","lat":52.6271,"lon":-1.9098,"branch":"air"},{"name":"Hillfort 250m south west of Tresawsen","lat":50.3041,"lon":-5.11302,"branch":"air"},{"name":"Hillfort, two bowl barrows, medieval strip lynchets and a cross dyke on Cley Hill","lat":51.2028,"lon":-2.23236,"branch":"air"},{"name":"Hillfort 320m north east of Castle Barn Farm","lat":51.87048,"lon":-2.00343,"branch":"air"},{"name":"Carl Wark slight univallate hillfort","lat":53.329397,"lon":-1.611959,"branch":"air"},{"name":"Hillfort at Castle Piece","lat":50.8795,"lon":-1.7185,"branch":"air"},{"name":"Earlier Prehistoric hillfort, two cairns, medieval pound and adjacent Prehistoric field systems, hut circles and transhumance hu","lat":50.5277,"lon":-4.45985,"branch":"air"},{"name":"Hillfort at Bulbury Camp","lat":50.7474,"lon":-2.10174,"branch":"air"},{"name":"Hillfort and two bowl barrows at Halwell Camp","lat":50.3663,"lon":-3.71071,"branch":"air"},{"name":"Wincobank slight univallate hillfort and World War II anti-aircraft gun and searchlight emplacement","lat":53.4144,"lon":-1.43317,"branch":"air"},{"name":"Cissbury Ring hillfort, prehistoric flint mine and associated remains","lat":50.8598,"lon":-0.382552,"branch":"air"},{"name":"Allabury Camp slight univallate hillfort 425m WNW of West Castick Farm","lat":50.5661,"lon":-4.46202,"branch":"air"},{"name":"Harting Beacon: a hilltop enclosure, Anglo-Saxon burial mound and telegraph station on Beacon and Pen Hills","lat":50.9582,"lon":-0.852298,"branch":"air"},{"name":"Hillfort on King John's Hill","lat":51.1335,"lon":-0.9214,"branch":"air"},{"name":"Pair of hlaews 150m south east of Chanctonbury Ring hillfort","lat":50.8959,"lon":-0.379453,"branch":"air"},{"name":"Hillfort 450m north west of Cargoll Farm","lat":50.36966609,"lon":-5.07191561,"branch":"air"},{"name":"Billings Ring large univallate hillfort","lat":52.4859,"lon":-2.92938,"branch":"air"},{"name":"Hillfort 400m south of Home Farm","lat":50.8752,"lon":-1.52395,"branch":"air"},{"name":"An unfinished hillfort, a saucer barrow, a disc barrow and sections of two linear earthworks on Ladle Hill","lat":51.3084,"lon":-1.31497,"branch":"air"},{"name":"Hillfort, a beacon and dewpond on Ditchling Beacon","lat":50.9013,"lon":-0.108,"branch":"air"},{"name":"Hillfort and 19th century folly on Saxonbury Hill","lat":51.0742,"lon":0.250843,"branch":"air"},{"name":"Hillfort, the possible remains of a Romano-Celtic temple and a group of three bowl barrows at Hollingbury","lat":50.8553,"lon":-0.123063,"branch":"air"},{"name":"Hillfort on Whitechapel Moors, 640m north east of Garliford Mill","lat":51.0233,"lon":-3.7734,"branch":"air"},{"name":"Saint Christina Castle","lat":43.34342,"lon":-8.37309,"branch":"air"},{"name":"Q12385768","lat":43.497580555,"lon":-8.225027777,"branch":"air"},{"name":"Q12385770","lat":43.533677777,"lon":-8.172869444,"branch":"air"},{"name":"Q12385771","lat":42.852777777,"lon":-8.697222222,"branch":"air"},{"name":"Q12385772","lat":43.392777777,"lon":-8.335,"branch":"air"},{"name":"Q12385773","lat":42.696388888,"lon":-8.252777777,"branch":"air"},{"name":"Q12385774","lat":43.2558306,"lon":-8.2723821,"branch":"air"},{"name":"Q12385775","lat":43.205,"lon":-8.339444444,"branch":"air"},{"name":"Q12385776","lat":43.352647222,"lon":-8.325094444,"branch":"air"},{"name":"Q12385777","lat":43.1584788,"lon":-8.322985,"branch":"air"},{"name":"Q12385778","lat":43.38519,"lon":-8.34036,"branch":"air"},{"name":"Q12385780","lat":42.673027777,"lon":-8.82425,"branch":"air"},{"name":"Q12385781","lat":43.353277777,"lon":-8.498297222,"branch":"air"},{"name":"Q12385784","lat":43.501652777,"lon":-8.178902777,"branch":"air"},{"name":"Q12385785","lat":43.1619601,"lon":-8.3460713,"branch":"air"},{"name":"Q12394642","lat":43.02919,"lon":-8.345424,"branch":"air"},{"name":"Ikan","lat":43.18881,"lon":68.523057,"branch":"air"},{"name":"Q12576764","lat":42.853977,"lon":68.252644,"branch":"air"},{"name":"Abeju\u010diai hillfort","lat":54.98341667,"lon":25.64383333,"branch":"air"},{"name":"Q12647072","lat":55.15763889,"lon":26.58991667,"branch":"air"},{"name":"Aglin\u0117s Mound","lat":54.303454,"lon":23.1345463,"branch":"air"},{"name":"Q12647136","lat":56.707440423,"lon":22.198003453,"branch":"air"},{"name":"Q12647274","lat":56.16836384,"lon":25.73794725,"branch":"air"},{"name":"Q12647298","lat":55.05294444,"lon":26.17575,"branch":"air"},{"name":"Q12647323","lat":55.33405556,"lon":25.28905556,"branch":"air"},{"name":"Q12648051","lat":56.15208333,"lon":25.54369444,"branch":"air"},{"name":"Q12648113","lat":55.88041667,"lon":25.50730556,"branch":"air"},{"name":"Q12648118","lat":56.03302778,"lon":22.04266667,"branch":"air"},{"name":"Aluotos hillfort","lat":55.70783333,"lon":25.28491667,"branch":"air"},{"name":"Alytus hillfort","lat":54.39661111,"lon":24.08,"branch":"air"},{"name":"Ambrazi\u016bnai hillfort","lat":55.35388889,"lon":23.65988889,"branch":"air"},{"name":"Q12648236","lat":55.14327778,"lon":25.26944444,"branch":"air"},{"name":"Q12648333","lat":55.39241667,"lon":25.59841667,"branch":"air"},{"name":"Q12648486","lat":54.40530556,"lon":23.88311111,"branch":"air"},{"name":"Q12648505","lat":55.50091667,"lon":25.91458333,"branch":"air"},{"name":"Q12648529","lat":55.38386111,"lon":25.30605556,"branch":"air"},{"name":"Q12648532","lat":55.36913889,"lon":25.29019444,"branch":"air"},{"name":"Q12648855","lat":55.35258333,"lon":25.64569444,"branch":"air"},{"name":"Q12648886","lat":55.52722222,"lon":25.89055556,"branch":"air"},{"name":"Q12648890","lat":55.77436111,"lon":21.41886111,"branch":"air"},{"name":"Antakalni\u0161kiai hillfort","lat":55.09063889,"lon":22.84997222,"branch":"air"},{"name":"Q12649060","lat":55.9118881,"lon":26.2616158,"branch":"air"},{"name":"Q12649132","lat":55.66319444,"lon":25.71816667,"branch":"air"},{"name":"Asavytai hillfort","lat":55.69905556,"lon":26.14341667,"branch":"air"},{"name":"Q12649380","lat":56.47487,"lon":21.68774,"branch":"air"},{"name":"Q12649403","lat":54.35686111,"lon":23.56780556,"branch":"air"},{"name":"Auks\u016bdys hillfort","lat":56.06152778,"lon":21.30419444,"branch":"air"},{"name":"Q12649784","lat":55.29205556,"lon":25.34069444,"branch":"air"},{"name":"Q12649786","lat":55.74905556,"lon":26.12,"branch":"air"},{"name":"Q12649808","lat":55.7145,"lon":25.76947222,"branch":"air"},{"name":"Q12649814","lat":56.58,"lon":25.52444444,"branch":"air"},{"name":"Q12649861","lat":55.42533333,"lon":26.20352778,"branch":"air"},{"name":"Q12649926","lat":56.58516,"lon":25.68586,"branch":"air"},{"name":"Q12649941","lat":54.58486111,"lon":24.10608333,"branch":"air"},{"name":"Q12649978","lat":54.63913889,"lon":24.70069444,"branch":"air"},{"name":"Q12650057","lat":55.92805556,"lon":24.91333333,"branch":"air"},{"name":"Balandi\u0161k\u0117s castle hill","lat":54.65475,"lon":24.54266667,"branch":"air"},{"name":"Balceri\u0161k\u0117s hillfort","lat":54.75208333,"lon":24.49027778,"branch":"air"},{"name":"Q12650113","lat":54.97694444,"lon":25.92027778,"branch":"air"},{"name":"Q12650161","lat":55.57894444,"lon":25.62333333,"branch":"air"},{"name":"Baluo\u0161a hillfort","lat":55.04841667,"lon":25.53752778,"branch":"air"},{"name":"Q12650390","lat":56.10244,"lon":25.84628,"branch":"air"},{"name":"Bartk\u016bnai hillfort","lat":55.13166667,"lon":24.85,"branch":"air"},{"name":"Q12650507","lat":54.16888889,"lon":24.69269444,"branch":"air"},{"name":"Q12650565","lat":54.43547222,"lon":24.15119444,"branch":"air"},{"name":"Q12650618","lat":54.68611111,"lon":25.3,"branch":"air"},{"name":"Q12650646","lat":56.698462559,"lon":22.177060203,"branch":"air"},{"name":"Bend\u017eiukai hillfort","lat":55.09027778,"lon":25.58486111,"branch":"air"},{"name":"Bernatoniai hillfort","lat":54.96216667,"lon":23.79111111,"branch":"air"},{"name":"Berzgainiai hillfort","lat":55.26611111,"lon":25.05694444,"branch":"air"},{"name":"Q12650871","lat":55.73980556,"lon":25.95763889,"branch":"air"},{"name":"Q12650904","lat":54.82433333,"lon":24.90108333,"branch":"air"},{"name":"Q12650910","lat":55.67166667,"lon":26.20969444,"branch":"air"},{"name":"Q12650938","lat":55.66833333,"lon":25.74161111,"branch":"air"},{"name":"Q12651042","lat":55.11958333,"lon":21.93369444,"branch":"air"},{"name":"Bir\u0161tonas hillfort","lat":54.595833,"lon":24.030556,"branch":"air"},{"name":"Bir\u017euv\u0117nai hillfort","lat":55.89077778,"lon":22.46063889,"branch":"air"},{"name":"Q12651082","lat":56.330673164,"lon":25.870471644,"branch":"air"},{"name":"Bi\u0161pilis","lat":55.08583333,"lon":22.75638889,"branch":"air"},{"name":"Boguti\u0161k\u0117 hillfort","lat":55.10083333,"lon":26.01166667,"branch":"air"},{"name":"Bradeli\u0161k\u0117s hillfort","lat":54.825,"lon":24.94305556,"branch":"air"},{"name":"Bra\u017euol\u0117 hillfort","lat":54.68044444,"lon":24.89277778,"branch":"air"},{"name":"Q12651384","lat":55.5265,"lon":25.93252778,"branch":"air"},{"name":"Q12651491","lat":56.10372222,"lon":25.54661111,"branch":"air"},{"name":"Bubiai hillfort","lat":55.86194444,"lon":23.12944444,"branch":"air"},{"name":"Budeliai hillfort","lat":54.93008333,"lon":24.68419444,"branch":"air"},{"name":"Q12651585","lat":55.9935,"lon":22.53861111,"branch":"air"},{"name":"Q12651616","lat":55.56191667,"lon":23.08280556,"branch":"air"},{"name":"Burbai\u010diai hillfort","lat":55.66425,"lon":23.03761111,"branch":"air"},{"name":"Burbi\u0161kiai hillfort","lat":55.65138889,"lon":22.28055556,"branch":"air"},{"name":"Q12651687","lat":55.04972222,"lon":22.63416667,"branch":"air"},{"name":"Bur\u010diakai hillfort","lat":54.76925,"lon":24.27486111,"branch":"air"},{"name":"Q12651727","lat":55.41722222,"lon":25.09833333,"branch":"air"},{"name":"Q12651731","lat":54.19247222,"lon":23.68616667,"branch":"air"},{"name":"B\u0117\u010dionys hillfort","lat":54.22013889,"lon":25.59930556,"branch":"air"},{"name":"Q12651869","lat":54.42611111,"lon":23.40861111,"branch":"air"},{"name":"Q12651992","lat":56.62413,"lon":22.61536,"branch":"air"},{"name":"Q12652007","lat":55.11888889,"lon":26.14805556,"branch":"air"},{"name":"Q12652072","lat":54.47947222,"lon":22.78336111,"branch":"air"},{"name":"Q12652144","lat":55.03727778,"lon":24.8465,"branch":"air"},{"name":"Q29655091","lat":57.669818,"lon":12.022987,"branch":"air"},{"name":"Q29655213","lat":58.798024,"lon":11.627458,"branch":"air"},{"name":"Q29655338","lat":58.748149,"lon":11.576506,"branch":"air"},{"name":"Q29655706","lat":58.99424,"lon":11.300498,"branch":"air"},{"name":"Q29655772","lat":59.041226,"lon":11.278646,"branch":"air"},{"name":"Q29655781","lat":59.052817,"lon":11.393498,"branch":"air"},{"name":"Q29655791","lat":59.012513,"lon":11.302385,"branch":"air"},{"name":"Q29655904","lat":58.262013,"lon":11.848145,"branch":"air"},{"name":"Q29655910","lat":58.261413,"lon":11.899488,"branch":"air"},{"name":"Q29655946","lat":58.241797,"lon":11.894168,"branch":"air"},{"name":"Q29655948","lat":58.246011,"lon":11.90289,"branch":"air"},{"name":"Q29655967","lat":57.903536,"lon":12.016071,"branch":"air"},{"name":"Q29656014","lat":57.852189,"lon":11.969126,"branch":"air"},{"name":"Q29656036","lat":58.234943,"lon":11.656337,"branch":"air"},{"name":"Q29656041","lat":58.246129,"lon":11.626099,"branch":"air"},{"name":"Q29656090","lat":58.208912,"lon":11.670193,"branch":"air"},{"name":"Q29656208","lat":58.657235,"lon":11.853207,"branch":"air"},{"name":"Q29678531","lat":58.948026,"lon":11.37211,"branch":"air"},{"name":"Q29685099","lat":59.509564,"lon":18.156295,"branch":"air"},{"name":"Q29685237","lat":59.526093,"lon":18.153314,"branch":"air"},{"name":"Q29686798","lat":58.952419,"lon":11.375199,"branch":"air"},{"name":"Q29687264","lat":58.950408,"lon":11.366126,"branch":"air"},{"name":"Q29689855","lat":59.551177,"lon":17.634367,"branch":"air"},{"name":"Q29690202","lat":58.974491,"lon":11.316785,"branch":"air"},{"name":"Q29690295","lat":58.972381,"lon":11.315975,"branch":"air"},{"name":"Q29690865","lat":58.862838,"lon":11.384492,"branch":"air"},{"name":"Q29691709","lat":59.554411,"lon":17.590131,"branch":"air"},{"name":"Runsa borg","lat":59.566526,"lon":17.828184,"branch":"air"},{"name":"Q29697710","lat":58.900627,"lon":11.263879,"branch":"air"},{"name":"Q29706671","lat":59.618419,"lon":18.194835,"branch":"air"},{"name":"Q29708866","lat":59.638281,"lon":18.120599,"branch":"air"},{"name":"Q29708900","lat":59.652082,"lon":18.116256,"branch":"air"},{"name":"B\u00f6rs\u00e5s hillfort","lat":58.359982,"lon":11.623019,"branch":"air"},{"name":"Q29715406","lat":59.666974,"lon":17.656371,"branch":"air"},{"name":"Q29715516","lat":57.936509,"lon":11.880383,"branch":"air"},{"name":"Q29718019","lat":57.934582,"lon":11.917893,"branch":"air"},{"name":"Q29718109","lat":57.952849,"lon":11.884953,"branch":"air"},{"name":"Q29718473","lat":59.551918,"lon":17.882393,"branch":"air"},{"name":"Borrefj\u00e4ll","lat":58.148233,"lon":11.710728,"branch":"air"},{"name":"Q29726247","lat":58.184413,"lon":11.716923,"branch":"air"},{"name":"Q29726474","lat":58.170055,"lon":11.662126,"branch":"air"},{"name":"Q29726999","lat":59.597163,"lon":17.791509,"branch":"air"},{"name":"Olsby Castle","lat":57.975952,"lon":11.626614,"branch":"air"},{"name":"Q29729704","lat":59.592748,"lon":17.695614,"branch":"air"},{"name":"Q29732120","lat":59.558856,"lon":17.686808,"branch":"air"},{"name":"Q29732514","lat":57.999422,"lon":11.635469,"branch":"air"},{"name":"Q29732939","lat":57.99388,"lon":11.617703,"branch":"air"},{"name":"Q29733421","lat":49.8156031,"lon":13.5309417,"branch":"air"},{"name":"Q29733822","lat":58.029321,"lon":11.643517,"branch":"air"},{"name":"Q29736385","lat":59.562071,"lon":17.591189,"branch":"air"},{"name":"Q29744149","lat":58.994381,"lon":17.455518,"branch":"air"},{"name":"Q29746000","lat":58.978062,"lon":17.611116,"branch":"air"},{"name":"Q29746161","lat":59.043105,"lon":17.490951,"branch":"air"},{"name":"Q29748969","lat":58.93418,"lon":11.191948,"branch":"air"},{"name":"Q29750175","lat":59.001253,"lon":17.52405,"branch":"air"},{"name":"Q29750683","lat":58.99948,"lon":17.490689,"branch":"air"},{"name":"Q29751076","lat":59.001807,"lon":17.504888,"branch":"air"},{"name":"Q29752362","lat":58.990776,"lon":17.523498,"branch":"air"},{"name":"Q29752653","lat":59.300844,"lon":18.424903,"branch":"air"},{"name":"Q29756929","lat":58.524843,"lon":11.529857,"branch":"air"},{"name":"Q29759159","lat":59.636049,"lon":18.237643,"branch":"air"},{"name":"Q29761958","lat":58.604729,"lon":11.517447,"branch":"air"},{"name":"Q29762004","lat":58.601785,"lon":11.52797,"branch":"air"},{"name":"Q29763002","lat":58.639164,"lon":11.560002,"branch":"air"},{"name":"Q29764018","lat":58.619546,"lon":11.575756,"branch":"air"},{"name":"Q29771932","lat":59.528649,"lon":17.529972,"branch":"air"},{"name":"Q29779222","lat":59.621442,"lon":18.040927,"branch":"air"},{"name":"Q29781171","lat":57.782945,"lon":11.924137,"branch":"air"},{"name":"Q29782293","lat":59.015079,"lon":17.69407,"branch":"air"},{"name":"Q29782341","lat":58.965867,"lon":17.654948,"branch":"air"},{"name":"Q29782444","lat":58.955395,"lon":17.678101,"branch":"air"},{"name":"Q29782493","lat":58.934783,"lon":17.679235,"branch":"air"},{"name":"Q29783416","lat":57.817131,"lon":11.958167,"branch":"air"},{"name":"Borres slott","lat":57.814281,"lon":11.958711,"branch":"air"},{"name":"Q29783594","lat":59.01075,"lon":17.66611,"branch":"air"},{"name":"Q29783596","lat":59.007744,"lon":17.666108,"branch":"air"},{"name":"Q29783599","lat":57.774007,"lon":11.956328,"branch":"air"},{"name":"Q29783667","lat":59.002965,"lon":17.652269,"branch":"air"},{"name":"Sandviks Redoubt","lat":59.582251,"lon":17.821983,"branch":"air"},{"name":"Q29784031","lat":59.698821,"lon":17.906003,"branch":"air"},{"name":"Q29784078","lat":59.675777,"lon":17.913066,"branch":"air"},{"name":"Q29784270","lat":59.673687,"lon":17.847139,"branch":"air"},{"name":"Q29784373","lat":59.647693,"lon":17.779941,"branch":"air"},{"name":"Q29784705","lat":59.673994,"lon":17.893286,"branch":"air"},{"name":"Q29786442","lat":59.241496,"lon":17.673882,"branch":"air"},{"name":"Q29786664","lat":59.244421,"lon":17.61066,"branch":"air"},{"name":"Q29786666","lat":59.244942,"lon":17.614291,"branch":"air"},{"name":"Q29786676","lat":59.236418,"lon":17.760047,"branch":"air"},{"name":"Q29787219","lat":59.624849,"lon":17.71252,"branch":"air"},{"name":"Q29787989","lat":58.659802,"lon":11.311251,"branch":"air"},{"name":"Q29788034","lat":58.739593,"lon":11.213309,"branch":"air"},{"name":"Q29788064","lat":58.716949,"lon":11.243825,"branch":"air"},{"name":"Q29788245","lat":58.658355,"lon":11.38567,"branch":"air"},{"name":"Q29788269","lat":59.596604,"lon":17.969621,"branch":"air"},{"name":"Q29788507","lat":58.783735,"lon":11.293799,"branch":"air"},{"name":"Q29788564","lat":58.694166,"lon":11.402809,"branch":"air"},{"name":"Q29788842","lat":58.769409,"lon":11.375145,"branch":"air"},{"name":"Q29789065","lat":58.69321,"lon":11.298985,"branch":"air"},{"name":"Q29789430","lat":59.045997,"lon":17.782103,"branch":"air"},{"name":"Q29789563","lat":58.094256,"lon":11.527943,"branch":"air"},{"name":"Q90575600","lat":55.320092305,"lon":28.4319305,"branch":"air"},{"name":"Q90686737","lat":55.160561,"lon":27.3713945,"branch":"air"},{"name":"Q90688386","lat":55.1089784,"lon":26.5024942,"branch":"air"},{"name":"Q90688793","lat":55.1312391,"lon":27.3633063,"branch":"air"},{"name":"Chvojen hillfort","lat":49.7709581,"lon":14.6311639,"branch":"air"},{"name":"Q91247466","lat":54.9391325,"lon":28.509412388,"branch":"air"},{"name":"Q91248434","lat":55.012861111,"lon":28.887944444,"branch":"air"},{"name":"Q91925763","lat":54.6212606,"lon":30.8357638,"branch":"air"},{"name":"Q91927920","lat":54.519101194,"lon":30.959842805,"branch":"air"},{"name":"Q91932118","lat":54.6410589,"lon":30.767861,"branch":"air"},{"name":"Q91992389","lat":54.529446694,"lon":30.744976388,"branch":"air"},{"name":"Q91995739","lat":54.6062844,"lon":31.1789229,"branch":"air"},{"name":"Q92319182","lat":41.676948547,"lon":-8.725170135,"branch":"air"},{"name":"Rm\u00edz","lat":49.5907253,"lon":17.0170175,"branch":"air"},{"name":"Q94609987","lat":55.031613305,"lon":27.652459111,"branch":"air"},{"name":"Q94630213","lat":54.647745194,"lon":27.813539194,"branch":"air"},{"name":"Q95745659","lat":40.15511322,"lon":-7.603442192,"branch":"air"},{"name":"Q95947426","lat":49.4048783,"lon":14.8125351,"branch":"air"},{"name":"Q96035318","lat":55.1137022,"lon":27.9636651,"branch":"air"},{"name":"Q96055291","lat":55.124983805,"lon":27.6115125,"branch":"air"},{"name":"Q96055662","lat":55.036409194,"lon":27.498478888,"branch":"air"},{"name":"Q96062503","lat":55.098099,"lon":27.7537018,"branch":"air"},{"name":"Q96081176","lat":55.214048,"lon":28.161445888,"branch":"air"},{"name":"Q96143867","lat":55.2699173,"lon":28.0852604,"branch":"air"},{"name":"Q96144046","lat":55.0772986,"lon":27.8548586,"branch":"air"},{"name":"Q96213122","lat":50.3314047,"lon":13.5432544,"branch":"air"},{"name":"Povoado romanizado do Cramanch\u00e3o","lat":41.519048,"lon":-7.041998,"branch":"air"},{"name":"Fraga dos Corvos","lat":41.49378,"lon":-6.945185,"branch":"air"},{"name":"Q96238261","lat":41.715,"lon":-7.605,"branch":"air"},{"name":"Q96279015","lat":39.547481536,"lon":-7.626396179,"branch":"air"},{"name":"Ond\u0159ejov","lat":49.9636578,"lon":13.3495325,"branch":"air"},{"name":"Luko","lat":43.563664,"lon":16.407547,"branch":"air"},{"name":"Terrace","lat":-35.031026,"lon":173.510818,"branch":"air"},{"name":"Terrace","lat":-35.412339,"lon":174.324563,"branch":"air"},{"name":"Terrace","lat":-35.427759,"lon":174.347301,"branch":"air"},{"name":"Terrace Sets","lat":-41.093505,"lon":174.850153,"branch":"air"},{"name":"Terrace Sets","lat":-41.093371,"lon":174.848856,"branch":"air"},{"name":"Terrace Sets","lat":-41.092827,"lon":174.848326,"branch":"air"},{"name":"Terrace Sets","lat":-41.092083,"lon":174.848189,"branch":"air"},{"name":"Terrace Sets","lat":-41.095878,"lon":174.845798,"branch":"air"},{"name":"Terrace Sets","lat":-41.094814,"lon":174.840648,"branch":"air"},{"name":"Terrace Sets","lat":-41.098473,"lon":174.83832,"branch":"air"},{"name":"Terrace Sets","lat":-41.103491,"lon":174.861145,"branch":"air"},{"name":"Terraces","lat":-35.412339,"lon":174.324563,"branch":"air"},{"name":"Terraces","lat":-35.412339,"lon":174.324563,"branch":"air"},{"name":"Terraces","lat":-41.247929,"lon":174.664782,"branch":"air"},{"name":"Terraces","lat":-41.099002,"lon":174.862134,"branch":"air"},{"name":"Terraces","lat":-41.098917,"lon":174.86221,"branch":"air"},{"name":"Terraces","lat":-41.098985,"lon":174.862222,"branch":"air"},{"name":"Terraces","lat":-41.103305,"lon":174.861648,"branch":"air"},{"name":"Terraces","lat":-41.131218,"lon":174.812209,"branch":"air"},{"name":"Terraces","lat":-41.107276,"lon":174.856851,"branch":"air"},{"name":"Terraces","lat":-41.103542,"lon":174.858869,"branch":"air"},{"name":"Terraces","lat":-41.110725,"lon":174.819331,"branch":"air"},{"name":"Terraces","lat":-36.246961,"lon":175.382921,"branch":"air"},{"name":"Terraces","lat":-36.245038,"lon":175.38729,"branch":"air"},{"name":"Terraces","lat":-36.252157,"lon":175.392101,"branch":"air"},{"name":"Terraces","lat":-36.240409,"lon":175.393979,"branch":"air"},{"name":"Terraces","lat":-38.086862,"lon":177.016264,"branch":"air"},{"name":"Terraces","lat":-38.09515,"lon":177.015312,"branch":"air"},{"name":"Terraces/ Pit","lat":-35.035617,"lon":173.533133,"branch":"air"},{"name":"Terraces/ Pits","lat":-38.111804,"lon":177.050546,"branch":"air"},{"name":"Terraces","lat":-38.736457,"lon":177.913289,"branch":"air"},{"name":"Terraces/ Pits","lat":-38.530614,"lon":178.267519,"branch":"air"},{"name":"Q96480374","lat":49.9546981,"lon":15.8155442,"branch":"air"},{"name":"Q96603008","lat":42.459444444,"lon":-8.246111111,"branch":"air"},{"name":"N\u00e1porky","lat":49.12908,"lon":16.32816,"branch":"air"},{"name":"Q96633663","lat":55.037764805,"lon":30.248655111,"branch":"air"},{"name":"Ranina","lat":55.151890388,"lon":30.526108111,"branch":"air"},{"name":"Q96636873","lat":50.3723775,"lon":15.3197411,"branch":"air"},{"name":"Q96637469","lat":55.2126095,"lon":29.864659305,"branch":"air"},{"name":"Q96637929","lat":50.3815825,"lon":15.3309597,"branch":"air"},{"name":"Q96655301","lat":55.104945805,"lon":30.271616111,"branch":"air"},{"name":"Q96759262","lat":41.009651184,"lon":-7.333146095,"branch":"air"},{"name":"Esta\u00e7\u00e3o arqueol\u00f3gica de Lovelhe","lat":41.952222,"lon":-8.739028,"branch":"air"},{"name":"Q96776706","lat":55.5907513,"lon":28.1690097,"branch":"air"},{"name":"Q29790102","lat":58.960334,"lon":17.833008,"branch":"air"},{"name":"Fornborg Sorunda 190:1","lat":58.95253,"lon":17.804192,"branch":"air"},{"name":"Q29790128","lat":58.963718,"lon":17.814207,"branch":"air"},{"name":"Q29790499","lat":57.807454,"lon":11.771335,"branch":"air"},{"name":"Q29790657","lat":59.017871,"lon":17.863414,"branch":"air"},{"name":"Q29790841","lat":59.060836,"lon":17.782268,"branch":"air"},{"name":"Q29790878","lat":59.075841,"lon":17.76729,"branch":"air"},{"name":"Q29791001","lat":59.097848,"lon":17.981691,"branch":"air"},{"name":"Q29791003","lat":59.094169,"lon":17.981179,"branch":"air"},{"name":"Q29791005","lat":59.06048,"lon":17.934436,"branch":"air"},{"name":"Q29791007","lat":59.054337,"lon":17.915981,"branch":"air"},{"name":"Q29791009","lat":59.085565,"lon":17.832069,"branch":"air"},{"name":"Tors Castle","lat":57.709667,"lon":11.742354,"branch":"air"},{"name":"Q29791118","lat":59.062001,"lon":17.89215,"branch":"air"},{"name":"Q29791201","lat":57.733813,"lon":11.77551,"branch":"air"},{"name":"Q29811902","lat":49.8157828,"lon":13.4977422,"branch":"air"},{"name":"St\u00f6velbergets fornborg","lat":59.179689,"lon":17.564737,"branch":"air"},{"name":"Q29814412","lat":59.142389,"lon":17.631723,"branch":"air"},{"name":"Q29816393","lat":59.186428,"lon":18.311092,"branch":"air"},{"name":"Q29816549","lat":59.21722,"lon":18.267966,"branch":"air"},{"name":"Q29817641","lat":58.447341,"lon":11.438335,"branch":"air"},{"name":"Q29818536","lat":58.453811,"lon":11.317659,"branch":"air"},{"name":"Q29820003","lat":59.460562,"lon":18.108237,"branch":"air"},{"name":"Q29820375","lat":59.44924,"lon":18.058794,"branch":"air"},{"name":"Q29831062","lat":59.288484,"lon":12.085072,"branch":"air"},{"name":"Q29832762","lat":59.54255,"lon":18.140891,"branch":"air"},{"name":"Q29833927","lat":59.393432,"lon":12.007171,"branch":"air"},{"name":"Q29835208","lat":59.550088,"lon":18.126011,"branch":"air"},{"name":"Q29837335","lat":59.215002,"lon":12.933618,"branch":"air"},{"name":"Q29837338","lat":59.237341,"lon":13.025119,"branch":"air"},{"name":"Q29837373","lat":59.184707,"lon":12.979732,"branch":"air"},{"name":"Q29837752","lat":59.230462,"lon":13.101112,"branch":"air"},{"name":"Q29837861","lat":59.186448,"lon":12.974443,"branch":"air"},{"name":"Q29837964","lat":59.712275,"lon":17.982953,"branch":"air"},{"name":"Q29838042","lat":59.72297,"lon":17.982526,"branch":"air"},{"name":"Q29838173","lat":59.315297,"lon":13.126108,"branch":"air"},{"name":"Q29838229","lat":59.047205,"lon":17.441102,"branch":"air"},{"name":"Q29838233","lat":59.038319,"lon":17.435248,"branch":"air"},{"name":"Q29838258","lat":59.256362,"lon":13.029629,"branch":"air"},{"name":"Q29838282","lat":59.297823,"lon":13.018027,"branch":"air"},{"name":"Q29838327","lat":59.064625,"lon":17.387587,"branch":"air"},{"name":"Q29838453","lat":59.077741,"lon":17.343357,"branch":"air"},{"name":"Q29838494","lat":59.095324,"lon":17.357645,"branch":"air"},{"name":"Bj\u00f6rsta Redoubt","lat":59.090015,"lon":17.331869,"branch":"air"},{"name":"Q29838502","lat":59.104255,"lon":17.358093,"branch":"air"},{"name":"Q29838573","lat":58.800873,"lon":13.254113,"branch":"air"},{"name":"Q29838898","lat":59.574018,"lon":13.145683,"branch":"air"},{"name":"Q29839214","lat":59.013919,"lon":17.437092,"branch":"air"},{"name":"Q29839713","lat":59.013547,"lon":17.402791,"branch":"air"},{"name":"Q29840636","lat":59.487843,"lon":13.29779,"branch":"air"},{"name":"Q29841545","lat":59.260403,"lon":17.558046,"branch":"air"},{"name":"Q29841640","lat":59.268278,"lon":17.461692,"branch":"air"},{"name":"Q29841798","lat":59.268947,"lon":17.545007,"branch":"air"},{"name":"Q29842077","lat":59.106296,"lon":17.657606,"branch":"air"},{"name":"Q29842080","lat":59.103433,"lon":17.668685,"branch":"air"},{"name":"Q29842231","lat":59.371302,"lon":13.332989,"branch":"air"},{"name":"Q29842479","lat":59.2367,"lon":12.912764,"branch":"air"},{"name":"Q29842683","lat":59.53952,"lon":18.223358,"branch":"air"},{"name":"Q29842721","lat":59.356691,"lon":14.075595,"branch":"air"},{"name":"Q29842991","lat":59.566162,"lon":18.407827,"branch":"air"},{"name":"Q29842997","lat":59.509326,"lon":18.249535,"branch":"air"},{"name":"\u00d6sseby-Garn 188:1","lat":59.577131,"lon":18.300237,"branch":"air"},{"name":"Q29843106","lat":59.297269,"lon":12.717448,"branch":"air"},{"name":"Q29843741","lat":59.084216,"lon":18.293384,"branch":"air"},{"name":"Q29843759","lat":59.094539,"lon":18.271255,"branch":"air"},{"name":"Q29843776","lat":59.125926,"lon":18.253779,"branch":"air"},{"name":"Q29844116","lat":59.142477,"lon":18.345324,"branch":"air"},{"name":"Q29846226","lat":59.132191,"lon":18.157107,"branch":"air"},{"name":"Q29846773","lat":59.563165,"lon":13.433998,"branch":"air"},{"name":"Q29847205","lat":59.116678,"lon":18.22489,"branch":"air"},{"name":"Q29847504","lat":59.132739,"lon":18.235689,"branch":"air"},{"name":"Ruda Redoubt","lat":59.170859,"lon":18.132343,"branch":"air"},{"name":"Q29849259","lat":59.409744,"lon":13.225329,"branch":"air"},{"name":"Q29849268","lat":59.1316,"lon":18.17856,"branch":"air"},{"name":"Q29852400","lat":59.369921,"lon":13.175615,"branch":"air"},{"name":"Q29853096","lat":59.163677,"lon":18.197869,"branch":"air"},{"name":"\u010cernovice","lat":50.45646,"lon":13.3428467,"branch":"air"},{"name":"Q29855165","lat":59.099824,"lon":14.230803,"branch":"air"},{"name":"Q29855202","lat":59.364271,"lon":13.190419,"branch":"air"},{"name":"Q29855307","lat":59.390503,"lon":13.199174,"branch":"air"},{"name":"Q29855501","lat":59.201742,"lon":17.698959,"branch":"air"},{"name":"Q29855504","lat":59.192201,"lon":17.704567,"branch":"air"},{"name":"Q29855890","lat":59.242691,"lon":17.651162,"branch":"air"},{"name":"Q29855991","lat":59.479734,"lon":18.24356,"branch":"air"},{"name":"Q29856758","lat":50.361748298,"lon":13.243891928,"branch":"air"},{"name":"Q29856869","lat":59.432739,"lon":12.739932,"branch":"air"},{"name":"Q29857340","lat":59.140821,"lon":13.175773,"branch":"air"},{"name":"Q29857374","lat":59.125099,"lon":13.060914,"branch":"air"},{"name":"Q29858916","lat":59.043941,"lon":13.227511,"branch":"air"},{"name":"Q29858926","lat":58.999617,"lon":13.230665,"branch":"air"},{"name":"Q29859094","lat":59.483277,"lon":13.723126,"branch":"air"},{"name":"Q29859127","lat":59.763029,"lon":13.213159,"branch":"air"},{"name":"Q29859142","lat":59.743008,"lon":13.326326,"branch":"air"},{"name":"Q29859327","lat":59.769529,"lon":13.251177,"branch":"air"},{"name":"M\u00f6rby Redoubt","lat":59.120307,"lon":15.518327,"branch":"air"},{"name":"Q29859637","lat":58.866321,"lon":14.970028,"branch":"air"},{"name":"Q29859638","lat":58.873493,"lon":14.819647,"branch":"air"},{"name":"Borfona Redoubt","lat":59.457487,"lon":15.609743,"branch":"air"},{"name":"Finn\u00e5kers Redoubt","lat":59.549397,"lon":15.535075,"branch":"air"},{"name":"Q29859886","lat":59.491377,"lon":15.458778,"branch":"air"},{"name":"Q12652278","lat":54.98897222,"lon":25.55838889,"branch":"air"},{"name":"Q12652287","lat":54.67361111,"lon":24.81897222,"branch":"air"},{"name":"Dapki\u0161k\u0117 hillfort","lat":55.42083333,"lon":22.01666667,"branch":"air"},{"name":"Dapki\u0161kiai hillfort","lat":55.27166667,"lon":22.23972222,"branch":"air"},{"name":"Q12652355","lat":56.34847222,"lon":22.15158333,"branch":"air"},{"name":"Q12652471","lat":54.73805556,"lon":24.11805556,"branch":"air"},{"name":"Daugin\u010diai II hillfort","lat":55.95094,"lon":21.539491,"branch":"air"},{"name":"Daugin\u010diai hillfort","lat":55.94661111,"lon":21.5315,"branch":"air"},{"name":"Q12652583","lat":55.23438889,"lon":23.54913889,"branch":"air"},{"name":"Q12652588","lat":54.38038889,"lon":24.32480556,"branch":"air"},{"name":"Q12652639","lat":55.19233333,"lon":26.14197222,"branch":"air"},{"name":"Degu\u010diai hillfort","lat":55.65,"lon":26.05,"branch":"air"},{"name":"D\u0113li\u0146kalns hillfort","lat":56.525322678,"lon":23.194391142,"branch":"air"},{"name":"Q12652846","lat":55.62736111,"lon":23.69113889,"branch":"air"},{"name":"Q12652898","lat":56.340661567,"lon":21.71206885,"branch":"air"},{"name":"Q12652928","lat":55.12675,"lon":25.36966667,"branch":"air"},{"name":"Q12652931","lat":54.58719444,"lon":25.64611111,"branch":"air"},{"name":"Q12653032","lat":55.90680556,"lon":25.95169444,"branch":"air"},{"name":"Q12653041","lat":54.27694444,"lon":23.93194444,"branch":"air"},{"name":"Q12653218","lat":55.66325,"lon":21.33780556,"branch":"air"},{"name":"Druskinink\u0117liai hillfort","lat":54.08466667,"lon":23.8375,"branch":"air"},{"name":"Dry\u017eiai hillfort","lat":55.36111111,"lon":25.79083333,"branch":"air"},{"name":"Dubiai hillfort","lat":55.10619444,"lon":24.55019444,"branch":"air"},{"name":"Dubravai hillfort","lat":54.82988889,"lon":24.11038889,"branch":"air"},{"name":"Q12653415","lat":55.062,"lon":23.31736111,"branch":"air"},{"name":"Dungeriukai hillfort","lat":55.503375,"lon":22.39319444,"branch":"air"},{"name":"Q12653566","lat":54.25769444,"lon":24.38891667,"branch":"air"},{"name":"Q12653595","lat":56.5627,"lon":21.91034,"branch":"air"},{"name":"Q12653650","lat":55.54472222,"lon":26.31333333,"branch":"air"},{"name":"Q12653862","lat":55.42233333,"lon":21.54833333,"branch":"air"},{"name":"Q12653891","lat":54.44430556,"lon":24.39097222,"branch":"air"},{"name":"Eket\u0117s piliakalnis","lat":55.792,"lon":21.18,"branch":"air"},{"name":"Elveri\u0161k\u0117 hillfort","lat":54.29502778,"lon":23.42836111,"branch":"air"},{"name":"Ezerl\u016bku pilskalns","lat":56.63235,"lon":23.01447,"branch":"air"},{"name":"Q12654252","lat":54.22408333,"lon":23.62866667,"branch":"air"},{"name":"Q12654696","lat":55.29466667,"lon":23.19258333,"branch":"air"},{"name":"Gaigaliai hillfort, Kupi\u0161kis","lat":55.77083333,"lon":25.07277778,"branch":"air"},{"name":"Q12654738","lat":55.29991667,"lon":25.32008333,"branch":"air"},{"name":"Q12654754","lat":55.664,"lon":25.65858333,"branch":"air"},{"name":"Q12654795","lat":55.38177778,"lon":25.54705556,"branch":"air"},{"name":"Q12654844","lat":55.39219444,"lon":22.96325,"branch":"air"},{"name":"Q12654855","lat":55.62580556,"lon":26.00519444,"branch":"air"},{"name":"Q12654860","lat":54.81388889,"lon":20.23611111,"branch":"air"},{"name":"Q12654899","lat":55.48963889,"lon":26.11277778,"branch":"air"},{"name":"Kalni\u0161k\u0117s piliakalnis","lat":55.71125,"lon":21.41619444,"branch":"air"},{"name":"Gaudu\u010di\u0173 hillfort","lat":55.91547222,"lon":21.53372222,"branch":"air"},{"name":"Q12654998","lat":55.01511111,"lon":25.38769444,"branch":"air"},{"name":"Q12655010","lat":55.55077778,"lon":22.97386111,"branch":"air"},{"name":"Q12655041","lat":55.48897222,"lon":21.71008333,"branch":"air"},{"name":"Q12655094","lat":55.55497222,"lon":22.42936111,"branch":"air"},{"name":"Gedmini\u0161k\u0117 hillfort","lat":55.56335556,"lon":22.40455556,"branch":"air"},{"name":"Q12655119","lat":56.08927778,"lon":21.93405556,"branch":"air"},{"name":"Q12655136","lat":55.47111111,"lon":22.46972222,"branch":"air"},{"name":"Q12655317","lat":54.54611111,"lon":24.29027778,"branch":"air"},{"name":"Geruliai hillfort","lat":54.53130556,"lon":24.27058333,"branch":"air"},{"name":"Q12655417","lat":55.16722222,"lon":22.12861111,"branch":"air"},{"name":"Q12655421","lat":54.37166667,"lon":23.59711111,"branch":"air"},{"name":"Q12655457","lat":55.29794444,"lon":23.40436111,"branch":"air"},{"name":"Ginu\u010diai hillfort","lat":55.37361111,"lon":25.985,"branch":"air"},{"name":"Q12655583","lat":54.27333333,"lon":23.59880556,"branch":"air"},{"name":"Q12655642","lat":56.09083333,"lon":21.96827778,"branch":"air"},{"name":"Q12655648","lat":54.83888889,"lon":20.01388889,"branch":"air"},{"name":"Q12655652","lat":55.86328056,"lon":23.03383889,"branch":"air"},{"name":"Q12655799","lat":56.3576,"lon":21.6041,"branch":"air"},{"name":"Q12655939","lat":55.99036111,"lon":21.84286111,"branch":"air"},{"name":"Q12656135","lat":55.49938889,"lon":22.65022222,"branch":"air"},{"name":"Gudeliai hillfort","lat":54.68933333,"lon":25.18888889,"branch":"air"},{"name":"Q12656159","lat":56.11991667,"lon":25.44741667,"branch":"air"},{"name":"Gud\u017eioniai hillfort","lat":55.0955,"lon":24.32655556,"branch":"air"},{"name":"Gutau\u010diai hillfort","lat":55.6335,"lon":25.80219444,"branch":"air"},{"name":"G\u0117luva hillfort","lat":55.24861111,"lon":23.50666667,"branch":"air"},{"name":"Q12656740","lat":56.59144,"lon":21.9663,"branch":"air"},{"name":"Ivang\u0117nai hillfort","lat":55.42205556,"lon":22.60438889,"branch":"air"},{"name":"Q12657003","lat":55.40666667,"lon":22.81472222,"branch":"air"},{"name":"Q12657027","lat":55.12544444,"lon":26.25944444,"branch":"air"},{"name":"Jadagoniai hillfort","lat":54.99638889,"lon":23.58166667,"branch":"air"},{"name":"Q12657215","lat":54.96113889,"lon":24.69563889,"branch":"air"},{"name":"Q12657304","lat":55.11533333,"lon":25.30794444,"branch":"air"},{"name":"Q12657382","lat":56.31183333,"lon":22.25852778,"branch":"air"},{"name":"Q12657387","lat":55.03166667,"lon":23.59555556,"branch":"air"},{"name":"Q12657484","lat":55.05363889,"lon":23.39902778,"branch":"air"},{"name":"Q12657934","lat":55.49719444,"lon":25.87572222,"branch":"air"},{"name":"Q12658024","lat":55.44163889,"lon":25.25047222,"branch":"air"},{"name":"Jon\u0117nai hillfort","lat":55.04208333,"lon":25.50591667,"branch":"air"},{"name":"Q12658046","lat":55.97805556,"lon":21.21111111,"branch":"air"},{"name":"Q12658207","lat":55.92194444,"lon":25.88694444,"branch":"air"},{"name":"Juodausiai hillfort","lat":55.2575,"lon":24.83361111,"branch":"air"},{"name":"Q12658309","lat":55.74083333,"lon":25.44,"branch":"air"},{"name":"Q12658354","lat":55.33786111,"lon":21.76708333,"branch":"air"},{"name":"Ju\u0161kai\u010diai hillfort","lat":55.42586111,"lon":22.48541667,"branch":"air"},{"name":"Kaldabru\u0146as pilskalns","lat":56.090486463,"lon":26.080080044,"branch":"air"},{"name":"Kalnaber\u017e\u0117 hillfort","lat":55.39627778,"lon":24.02058333,"branch":"air"},{"name":"Kalniniai Mijaugonys Hillfort","lat":54.79991667,"lon":24.59952778,"branch":"air"},{"name":"Kalni\u0161ki\u0173 hillfort","lat":55.84266667,"lon":22.85861111,"branch":"air"},{"name":"Q12659325","lat":55.67358333,"lon":22.73244444,"branch":"air"},{"name":"Q12659334","lat":55.89947222,"lon":25.85027778,"branch":"air"},{"name":"Q12659375","lat":55.47444444,"lon":22.44944444,"branch":"air"},{"name":"Kalviai hillfort","lat":55.49611111,"lon":25.80972222,"branch":"air"},{"name":"Q12659410","lat":56.37789,"lon":21.88597,"branch":"air"},{"name":"Q12659414","lat":56.29559,"lon":21.53183,"branch":"air"},{"name":"Marion's Close, Cambridge","lat":52.2187,"lon":0.1033,"branch":"air"},{"name":"Ashbury Camp","lat":50.7496,"lon":-4.51304,"branch":"air"},